% program   : RTKPOST ver.2.4.3 b34
% inp file  : E:\Studium\M2-Satellitennavigation\SatellitenNaviUebung\3\Icare_NetR9_1Hz\Icare_NetR9_1Hz.obs
% inp file  : E:\Studium\M2-Satellitennavigation\SatellitenNaviUebung\3\Zusatzdaten\igs21202.sp3
% inp file  : E:\Studium\M2-Satellitennavigation\SatellitenNaviUebung\3\Zusatzdaten\igs21202.clk
% inp file  : E:\Studium\M2-Satellitennavigation\SatellitenNaviUebung\3\Zusatzdaten\BRDC00IGS_R_20202380000_01D_MN.rnx
% obs start : 2020/08/25 12:03:00.0 GPST (week2120 216180.0s)
% obs end   : 2020/08/25 12:20:00.0 GPST (week2120 217200.0s)
% pos mode  : PPP Kinematic
% solution  : Combined
% elev mask : 5.0 deg
% dynamics  : off
% tidecorr  : off
% tropo opt : Estimate ZTD
% ephemeris : Broadcast
% navi sys  : GPS GLONASS Galileo QZSS NavIC SBAS
% antenna1  :                       ( 0.0000  0.0000  0.0000)
%
% (lat/lon/height=WGS84/ellipsoidal,Q=1:fix,2:float,3:sbas,4:dgps,5:single,6:ppp,ns=# of satellites)
%  GPST                  latitude(deg) longitude(deg)  height(m)   Q  ns   sdn(m)   sde(m)   sdu(m)  sdne(m)  sdeu(m)  sdun(m) age(s)  ratio    vn(m/s)    ve(m/s)    vu(m/s)      sdvn     sdve     sdvu    sdvne    sdveu    sdvun
2020/08/25 12:03:00.000   48.052049839    9.361422582   605.9313   6  11   2.2533   1.4469   2.9320   1.0138   0.9432   1.0541   0.00    0.0    0.00432   -0.00231    0.00896   0.07141  0.06919  0.13654  0.03243 -0.03701  0.05058
2020/08/25 12:03:01.000   48.052059283    9.361425220   606.6857   6  11   2.1296   1.3658   2.7674   0.9593   0.8910   0.9991   0.00    0.0   -0.00274    0.00598    0.01903   0.07141  0.06918  0.13653  0.03244 -0.03700  0.05058
2020/08/25 12:03:02.000   48.052049931    9.361429836   607.3798   6  11   2.0699   1.3254   2.6840   0.9341   0.8635   0.9754   0.00    0.0   -0.00316    0.00374    0.01367   0.07141  0.06918  0.13652  0.03244 -0.03698  0.05057
2020/08/25 12:03:03.000   48.052051214    9.361424394   606.5844   6  11   2.0348   1.3011   2.6335   0.9196   0.8465   0.9624   0.00    0.0   -0.01102   -0.00011    0.01541   0.07141  0.06918  0.13651  0.03244 -0.03697  0.05057
2020/08/25 12:03:04.000   48.052043977    9.361429163   607.0634   6  11   2.0116   1.2850   2.5996   0.9103   0.8350   0.9542   0.00    0.0   -0.00303    0.00354    0.00176   0.07141  0.06918  0.13650  0.03244 -0.03696  0.05056
2020/08/25 12:03:05.000   48.052050277    9.361432072   607.0935   6  11   1.9952   1.2735   2.5753   0.9038   0.8267   0.9486   0.00    0.0   -0.00290    0.00267    0.01217   0.07141  0.06918  0.13649  0.03245 -0.03694  0.05056
2020/08/25 12:03:06.000   48.052052721    9.361430532   607.5923   6  11   1.9830   1.2648   2.5569   0.8990   0.8205   0.9444   0.00    0.0   -0.00106    0.00612    0.01366   0.07141  0.06917  0.13647  0.03245 -0.03693  0.05055
2020/08/25 12:03:07.000   48.052052259    9.361429048   606.6045   6  11   1.9736   1.2582   2.5426   0.8954   0.8158   0.9413   0.00    0.0   -0.00986   -0.00538    0.01434   0.07141  0.06917  0.13646  0.03245 -0.03691  0.05054
2020/08/25 12:03:08.000   48.052053883    9.361430954   607.1143   6  11   1.9661   1.2528   2.5311   0.8926   0.8120   0.9388   0.00    0.0   -0.00216   -0.00570    0.00600   0.07141  0.06917  0.13645  0.03246 -0.03690  0.05054
2020/08/25 12:03:09.000   48.052052123    9.361428802   607.0793   6  11   1.9600   1.2485   2.5217   0.8903   0.8089   0.9367   0.00    0.0   -0.00200    0.00521    0.00778   0.07141  0.06917  0.13644  0.03246 -0.03688  0.05053
2020/08/25 12:03:10.000   48.052047915    9.361426590   606.7066   6  11   1.9550   1.2449   2.5138   0.8884   0.8064   0.9350   0.00    0.0   -0.00314    0.00008    0.00543   0.07141  0.06916  0.13643  0.03246 -0.03687  0.05053
2020/08/25 12:03:11.000   48.052048199    9.361430452   606.9667   6  11   1.9508   1.2419   2.5071   0.8868   0.8043   0.9336   0.00    0.0    0.00229   -0.00493    0.01467   0.07141  0.06916  0.13641  0.03247 -0.03685  0.05052
2020/08/25 12:03:12.000   48.052058062    9.361434955   607.2005   6  11   1.9472   1.2393   2.5013   0.8855   0.8026   0.9324   0.00    0.0    0.00324    0.00048    0.01987   0.07141  0.06916  0.13640  0.03247 -0.03684  0.05052
2020/08/25 12:03:13.000   48.052048668    9.361439217   607.3081   6  11   1.9441   1.2371   2.4964   0.8844   0.8011   0.9313   0.00    0.0    0.00415    0.00506    0.01272   0.07142  0.06916  0.13639  0.03247 -0.03682  0.05051
2020/08/25 12:03:14.000   48.052050478    9.361440717   607.9819   6  11   1.9414   1.2351   2.4920   0.8835   0.7999   0.9303   0.00    0.0    0.00624   -0.00129   -0.00619   0.07142  0.06916  0.13638  0.03248 -0.03681  0.05050
2020/08/25 12:03:15.000   48.052050545    9.361428852   606.8605   6  11   1.9391   1.2334   2.4881   0.8827   0.7989   0.9295   0.00    0.0    0.00044    0.00067    0.02717   0.07142  0.06915  0.13636  0.03248 -0.03679  0.05050
2020/08/25 12:03:16.000   48.052046710    9.361427455   606.8422   6  11   1.9370   1.2319   2.4847   0.8820   0.7980   0.9287   0.00    0.0    0.00465   -0.00383    0.01560   0.07142  0.06915  0.13635  0.03248 -0.03678  0.05049
2020/08/25 12:03:17.000   48.052048190    9.361433040   607.4202   6  11   1.9352   1.2306   2.4816   0.8813   0.7972   0.9280   0.00    0.0   -0.00657   -0.00471    0.01109   0.07142  0.06915  0.13634  0.03249 -0.03676  0.05049
2020/08/25 12:03:18.000   48.052047402    9.361431381   606.9425   6  11   1.9336   1.2295   2.4788   0.8808   0.7966   0.9273   0.00    0.0    0.00822   -0.00228    0.01319   0.07142  0.06915  0.13633  0.03249 -0.03675  0.05048
2020/08/25 12:03:19.000   48.052044471    9.361425790   607.5474   6  11   1.9321   1.2284   2.4763   0.8803   0.7961   0.9267   0.00    0.0    0.00336   -0.00512    0.00602   0.07142  0.06915  0.13632  0.03249 -0.03673  0.05048
2020/08/25 12:03:20.000   48.052039989    9.361428923   607.0345   6  11   1.9308   1.2275   2.4741   0.8799   0.7957   0.9262   0.00    0.0    0.00249    0.00154    0.00424   0.07142  0.06914  0.13630  0.03250 -0.03672  0.05047
2020/08/25 12:03:21.000   48.052054477    9.361432583   607.4458   6  11   1.9297   1.2266   2.4720   0.8795   0.7953   0.9256   0.00    0.0    0.00128    0.00168    0.00569   0.07142  0.06914  0.13629  0.03250 -0.03670  0.05046
2020/08/25 12:03:22.000   48.052051736    9.361431206   606.9920   6  11   1.9286   1.2259   2.4701   0.8792   0.7950   0.9251   0.00    0.0    0.00282    0.01955    0.01352   0.07142  0.06914  0.13628  0.03250 -0.03669  0.05046
2020/08/25 12:03:23.000   48.052062429    9.361431646   606.8740   6  11   1.9277   1.2252   2.4684   0.8789   0.7948   0.9246   0.00    0.0    0.24558    0.83238    0.01261   0.07142  0.06914  0.13627  0.03250 -0.03668  0.05045
2020/08/25 12:03:24.000   48.052058450    9.361442305   606.7330   6  11   1.9268   1.2246   2.4668   0.8786   0.7947   0.9241   0.00    0.0    0.22079    0.75294   -0.01424   0.07142  0.06914  0.13626  0.03251 -0.03666  0.05045
2020/08/25 12:03:25.000   48.052048489    9.361448930   607.6523   6  11   1.9261   1.2240   2.4654   0.8783   0.7946   0.9236   0.00    0.0    0.14754    0.46812    0.00848   0.07142  0.06913  0.13624  0.03251 -0.03665  0.05044
2020/08/25 12:03:26.000   48.052048714    9.361455689   606.5714   6  11   1.9254   1.2235   2.4641   0.8781   0.7945   0.9232   0.00    0.0    0.06798    0.24725    0.01875   0.07142  0.06913  0.13623  0.03251 -0.03663  0.05044
2020/08/25 12:03:27.000   48.052051669    9.361458504   607.7705   6  11   1.9247   1.2230   2.4629   0.8779   0.7945   0.9227   0.00    0.0    0.00196    0.01587    0.00955   0.07142  0.06913  0.13622  0.03252 -0.03662  0.05043
2020/08/25 12:03:28.000   48.052046394    9.361461987   606.5629   6  11   1.9242   1.2226   2.4618   0.8777   0.7946   0.9222   0.00    0.0    0.44117    1.50196   -0.00055   0.07143  0.06913  0.13621  0.03252 -0.03660  0.05042
2020/08/25 12:03:29.000   48.052061944    9.361498281   607.5414   6  11   1.9236   1.2223   2.4608   0.8775   0.7947   0.9217   0.00    0.0    0.66510    2.23990    0.02279   0.07143  0.06913  0.13620  0.03252 -0.03659  0.05042
2020/08/25 12:03:30.000   48.052068606    9.361530224   606.5744   6  11   1.9232   1.2219   2.4599   0.8773   0.7949   0.9213   0.00    0.0    1.02491    3.49756    0.02365   0.07143  0.06912  0.13618  0.03253 -0.03657  0.05041
2020/08/25 12:03:31.000   48.052087469    9.361596464   607.6064   6  11   1.9228   1.2216   2.4591   0.8772   0.7952   0.9208   0.00    0.0    1.27845    4.81647    0.00135   0.07143  0.06912  0.13617  0.03253 -0.03656  0.05041
2020/08/25 12:03:32.000   48.052089644    9.361661800   606.9027   6  11   1.9224   1.2214   2.4584   0.8770   0.7955   0.9202   0.00    0.0    1.62145    6.83452    0.01198   0.07143  0.06912  0.13616  0.03253 -0.03654  0.05040
2020/08/25 12:03:33.000   48.052105081    9.361760941   606.5183   6  11   1.9221   1.2212   2.4578   0.8768   0.7958   0.9197   0.00    0.0    1.83711    8.10931   -0.02056   0.07387  0.06912  0.13830  0.03248 -0.03647  0.04563
2020/08/25 12:03:34.000   48.052134072    9.361887517   607.1378   6  10   2.0806   1.2274   2.4573   0.8178   0.7950   0.9262   0.00    0.0    2.44274    9.82719    0.16061   0.07387  0.06912  0.13829  0.03248 -0.03645  0.04562
2020/08/25 12:03:35.000   48.052155976    9.362029785   606.4581   6  10   2.0804   1.2272   2.4569   0.8175   0.7955   0.9254   0.00    0.0    2.97560   11.41796   -0.13138   0.07387  0.06911  0.13827  0.03249 -0.03644  0.04561
2020/08/25 12:03:36.000   48.052181092    9.362194268   606.7172   6  11   1.9213   1.2207   2.4566   0.8762   0.7974   0.9176   0.00    0.0    3.22590   12.57712    0.08557   0.07387  0.06911  0.13826  0.03249 -0.03642  0.04561
2020/08/25 12:03:37.000   48.052211177    9.362371779   607.6578   6  11   1.9212   1.2206   2.4564   0.8760   0.7981   0.9169   0.00    0.0    3.68357   14.12574   -0.10622   0.07387  0.06911  0.13825  0.03249 -0.03640  0.04560
2020/08/25 12:03:38.000   48.052250389    9.362569079   606.5492   6  11   1.9210   1.2206   2.4564   0.8758   0.7989   0.9160   0.00    0.0    3.81117   15.62850    0.11707   0.07387  0.06911  0.13824  0.03249 -0.03639  0.04560
2020/08/25 12:03:39.000   48.052284060    9.362786795   608.3530   6  11   1.9209   1.2206   2.4566   0.8755   0.7999   0.9151   0.00    0.0    4.08081   16.87891    0.59269   0.07143  0.06911  0.13607  0.03255 -0.03644  0.05036
2020/08/25 12:03:40.000   48.052317642    9.363019300   608.1528   6  11   1.9209   1.2207   2.4570   0.8751   0.8012   0.9140   0.00    0.0    4.71731   17.93938   -0.45800   0.07143  0.06910  0.13606  0.03256 -0.03643  0.05036
2020/08/25 12:03:41.000   48.052369441    9.363269502   607.1463   6  11   1.9209   1.2208   2.4577   0.8748   0.8026   0.9127   0.00    0.0    4.97820   19.38131    0.59976   0.07143  0.06910  0.13605  0.03256 -0.03641  0.05035
2020/08/25 12:03:42.000   48.052411490    9.363544316   607.4515   6  11   1.9210   1.2211   2.4588   0.8743   0.8045   0.9111   0.00    0.0    4.99578   20.57386   -0.31562   0.07143  0.06910  0.13604  0.03256 -0.03640  0.05034
2020/08/25 12:03:43.000   48.052464726    9.363828004   607.9154   6  11   1.9212   1.2214   2.4604   0.8737   0.8068   0.9091   0.00    0.0    5.03989   21.81690    0.24680   0.07143  0.06910  0.13602  0.03257 -0.03639  0.05034
2020/08/25 12:03:44.000   48.052498349    9.364123720   607.1413   6  11   1.9215   1.2220   2.4627   0.8728   0.8099   0.9066   0.00    0.0    5.49619   22.87362    0.20125   0.07143  0.06910  0.13601  0.03257 -0.03637  0.05033
2020/08/25 12:03:45.000   48.052560059    9.364436608   607.6102   6  11   1.9219   1.2228   2.4662   0.8717   0.8141   0.9031   0.00    0.0    6.07054   23.75961   -0.11762   0.07143  0.06910  0.13600  0.03257 -0.03636  0.05033
2020/08/25 12:03:46.000   48.052614070    9.364764057   608.1607   6  11   1.9226   1.2240   2.4717   0.8701   0.8203   0.8981   0.00    0.0    6.37465   24.69639    0.48017   0.07144  0.06909  0.13599  0.03257 -0.03634  0.05032
2020/08/25 12:03:47.000   48.052673736    9.365105445   607.6374   6  11   1.9237   1.2261   2.4810   0.8674   0.8302   0.8901   0.00    0.0    6.58152   25.64117   -0.45003   0.07352  0.06910  0.13919  0.03231 -0.03592  0.04488
2020/08/25 12:03:48.000   48.052735834    9.365452351   607.2760   6  11   1.9258   1.2301   2.4991   0.8622   0.8486   0.8748   0.00    0.0    6.30919   26.55337    0.38104   0.07144  0.06909  0.13596  0.03258 -0.03632  0.05031
2020/08/25 12:03:49.000   48.052785229    9.365811530   608.1764   6  11   1.9311   1.2411   2.5479   0.8485   0.8959   0.8332   0.00    0.0    6.31588   27.17512    0.54248   0.07352  0.06910  0.13917  0.03232 -0.03589  0.04487
2020/08/25 12:03:50.000   48.052849310    9.366170397   608.6213   6  10   1.9522   1.2823   2.7245   0.7925   1.0558   0.6470   0.00    0.0    6.91945   27.03113    2.43553   0.07352  0.06909  0.13915  0.03232 -0.03587  0.04487
2020/08/25 12:03:51.000   48.052918881    9.366537695   612.0573   6  10   1.9526   1.2823   2.7242   0.7922   1.0561   0.6463   0.00    0.0    7.70261   26.63144    3.33992   0.07144  0.06908  0.13593  0.03259 -0.03627  0.05029
2020/08/25 12:03:52.000   48.052986279    9.366884768   615.7039   6  10   1.9530   1.2824   2.7239   0.7919   1.0564   0.6455   0.00    0.0    7.70631   26.33486    3.82909   0.07392  0.07084  0.14468  0.03040 -0.02576  0.04130
2020/08/25 12:03:53.000   48.053041008    9.367247247   617.5162   6  10   1.9537   1.2824   2.7236   0.7915   1.0568   0.6444   0.00    0.0    7.42426   26.62807    1.06380   0.07392  0.07084  0.14467  0.03040 -0.02573  0.04130
2020/08/25 12:03:54.000   48.053107306    9.367600455   619.0578   6  10   1.9545   1.2825   2.7233   0.7910   1.0572   0.6431   0.00    0.0    7.23651   26.96465    1.30834   0.07392  0.07084  0.14466  0.03040 -0.02571  0.04129
2020/08/25 12:03:55.000   48.053179499    9.367973443   621.5401   6  10   1.9557   1.2827   2.7231   0.7902   1.0577   0.6413   0.00    0.0    6.61699   27.32778    1.26558   0.07804  0.07094  0.15016  0.02874 -0.02238  0.02640
2020/08/25 12:03:56.000   48.053236334    9.368338699   619.3704   6  10   1.9574   1.2829   2.7230   0.7890   1.0583   0.6388   0.00    0.0    6.42226   27.89010    0.55711   0.07804  0.07094  0.15014  0.02874 -0.02235  0.02640
2020/08/25 12:03:57.000   48.053290347    9.368718303   621.1371   6  10   1.9599   1.2833   2.7230   0.7872   1.0592   0.6350   0.00    0.0    6.38034   28.65173    1.05448   0.07804  0.07094  0.15013  0.02874 -0.02231  0.02639
2020/08/25 12:03:58.000   48.053354152    9.369106882   621.2381   6  10   1.9642   1.2838   2.7233   0.7842   1.0604   0.6288   0.00    0.0    6.63522   29.18593   -0.63453   0.07804  0.07094  0.15012  0.02874 -0.02227  0.02638
2020/08/25 12:03:59.000   48.053418062    9.369495327   622.0094   6  10   2.1681   1.2977   2.7020   0.6369   1.0645   0.3682   0.00    0.0    7.97346   29.25079    1.45038   0.07144  0.06907  0.13583  0.03261 -0.03616  0.05024
2020/08/25 12:04:00.000   48.053495310    9.369891264   622.9094   6  10   1.9726   1.2850   2.7239   0.7782   1.0629   0.6166   0.00    0.0    8.20541   29.41456    1.24622   0.07158  0.07072  0.13994  0.03157 -0.02817  0.04874
2020/08/25 12:04:01.000   48.053575438    9.370291618   624.7797   6  10   1.9964   1.2881   2.7272   0.7604   1.0691   0.5804   0.00    0.0    8.21408   29.40856    2.71129   0.07393  0.07083  0.14459  0.03042 -0.02552  0.04125
2020/08/25 12:04:02.000   48.053630803    9.370681423   624.5200   6   9   2.1890   1.3146   2.7578   0.5854   1.1186  -0.1811   0.00    0.0    8.08787   29.05684    1.78528   0.07316  0.07156  0.14120  0.02884 -0.03162  0.05160
2020/08/25 12:04:03.000   48.053687601    9.371062346   630.5402   6   9   2.1889   1.3146   2.7574   0.5858   1.1188  -0.1800   0.00    0.0    7.24941   28.27995    6.70593   0.07588  0.07174  0.14538  0.02703 -0.02871  0.04432
2020/08/25 12:04:04.000   48.053781036    9.371448702   635.0036   6   9   2.1888   1.3146   2.7571   0.5861   1.1189  -0.1788   0.00    0.0    6.80610   28.26355    2.70452   0.08074  0.07196  0.15039  0.02401 -0.02463  0.03001
2020/08/25 12:04:05.000   48.053839713    9.371826380   638.5381   6   9   2.1887   1.3146   2.7567   0.5865   1.1190  -0.1777   0.00    0.0    6.27620   28.18785    5.36296   0.08074  0.07196  0.15038  0.02401 -0.02460  0.03001
2020/08/25 12:04:06.000   48.053875732    9.372205839   640.3769   6   9   2.1886   1.3146   2.7563   0.5868   1.1191  -0.1765   0.00    0.0    5.94021   28.59916    1.38688   0.08074  0.07195  0.15037  0.02401 -0.02457  0.03000
2020/08/25 12:04:07.000   48.053953527    9.372597724   641.7756   6  10   2.1138   1.2539   2.5461   0.7541   0.9145   0.7534   0.00    0.0    5.52694   28.82007   -0.52974   0.07294  0.06973  0.13745  0.03038 -0.03885  0.05328
2020/08/25 12:04:08.000   48.053978109    9.372979809   640.9135   6  10   2.0972   1.2405   2.4982   0.7857   0.8642   0.8348   0.00    0.0    5.33315   29.55176    0.01906   0.07295  0.06973  0.13744  0.03038 -0.03884  0.05328
2020/08/25 12:04:09.000   48.054040706    9.373376940   642.6757   6  11   1.9594   1.2289   2.4791   0.8529   0.8421   0.8758   0.00    0.0    6.41796   29.47607    1.07262   0.07145  0.06905  0.13570  0.03264 -0.03602  0.05018
2020/08/25 12:04:10.000   48.054094855    9.373767337   644.8239   6  11   1.9411   1.2260   2.4686   0.8620   0.8323   0.8834   0.00    0.0    7.45276   29.29977    1.94725   0.07145  0.06905  0.13569  0.03264 -0.03601  0.05018
2020/08/25 12:04:11.000   48.054168374    9.374160554   646.9598   6  11   1.9342   1.2244   2.4624   0.8662   0.8265   0.8888   0.00    0.0    7.56968   28.79039    2.63485   0.07145  0.06905  0.13568  0.03265 -0.03600  0.05017
2020/08/25 12:04:12.000   48.054240514    9.374549647   651.1839   6  11   1.9306   1.2234   2.4585   0.8687   0.8230   0.8923   0.00    0.0    7.03091   28.64110    2.98854   0.07353  0.06905  0.13886  0.03236 -0.03553  0.04474
2020/08/25 12:04:13.000   48.054299936    9.374927809   653.5351   6  11   1.9284   1.2228   2.4559   0.8703   0.8208   0.8947   0.00    0.0    6.57589   28.21107    3.04650   0.07353  0.06905  0.13885  0.03236 -0.03552  0.04473
2020/08/25 12:04:14.000   48.054359186    9.375305081   655.1033   6  11   1.9269   1.2224   2.4542   0.8715   0.8195   0.8961   0.00    0.0    6.83637   27.96881    2.33980   0.07698  0.06905  0.14221  0.03215 -0.03524  0.03604
2020/08/25 12:04:15.000   48.054424965    9.375678097   657.6580   6  11   1.9260   1.2222   2.4532   0.8722   0.8190   0.8969   0.00    0.0    7.22613   27.75283    2.57810   0.07389  0.06904  0.13778  0.03255 -0.03581  0.04537
2020/08/25 12:04:16.000   48.054490730    9.376053297   659.6174   6  11   1.9254   1.2222   2.4529   0.8726   0.8191   0.8971   0.00    0.0    7.31228   27.89146    0.87107   0.07389  0.06904  0.13776  0.03255 -0.03580  0.04537
2020/08/25 12:04:17.000   48.054555999    9.376428847   659.9889   6  11   1.9251   1.2223   2.4532   0.8728   0.8198   0.8968   0.00    0.0    7.32178   28.06721    1.46271   0.07145  0.06904  0.13561  0.03266 -0.03591  0.05013
2020/08/25 12:04:18.000   48.054617867    9.376807643   662.2548   6  11   1.9249   1.2226   2.4542   0.8728   0.8213   0.8958   0.00    0.0    7.74034   28.13060    1.19850   0.07145  0.06903  0.13559  0.03267 -0.03590  0.05013
2020/08/25 12:04:19.000   48.054686500    9.377186602   662.5770   6  11   1.9250   1.2231   2.4561   0.8724   0.8237   0.8941   0.00    0.0    7.97999   28.31783    0.95443   0.07145  0.06903  0.13558  0.03267 -0.03588  0.05012
2020/08/25 12:04:20.000   48.054761653    9.377571803   663.6374   6  11   1.9254   1.2239   2.4593   0.8716   0.8273   0.8913   0.00    0.0    7.76155   28.65014    0.55621   0.07145  0.06903  0.13557  0.03267 -0.03587  0.05012
2020/08/25 12:04:21.000   48.054827996    9.377953623   663.8608   6  11   1.9261   1.2252   2.4646   0.8703   0.8330   0.8868   0.00    0.0    7.41698   28.94152    0.17974   0.07145  0.06903  0.13556  0.03268 -0.03586  0.05011
2020/08/25 12:04:22.000   48.054896950    9.378346882   664.8564   6  11   1.9272   1.2274   2.4738   0.8678   0.8425   0.8792   0.00    0.0    6.70999   29.28899    0.76881   0.07145  0.06903  0.13554  0.03268 -0.03584  0.05010
2020/08/25 12:04:23.000   48.054951125    9.378737417   665.0751   6  11   1.9295   1.2316   2.4920   0.8628   0.8608   0.8642   0.00    0.0    6.16010   29.45716    1.41282   0.07145  0.06903  0.13553  0.03268 -0.03583  0.05010
2020/08/25 12:04:24.000   48.054998753    9.379131015   667.9738   6  11   1.9350   1.2429   2.5413   0.8492   0.9080   0.8226   0.00    0.0    5.77437   29.54868    3.24784   0.07145  0.06902  0.13552  0.03268 -0.03581  0.05009
2020/08/25 12:04:25.000   48.055051765    9.379530443   669.7783   6  10   1.9555   1.2840   2.7147   0.7947   1.0641   0.6411   0.00    0.0    6.25660   29.67247    1.70768   0.07145  0.06902  0.13551  0.03269 -0.03580  0.05009
2020/08/25 12:04:26.000   48.055116592    9.379926550   672.7213   6  10   1.9565   1.2842   2.7146   0.7941   1.0646   0.6397   0.00    0.0    6.57709   29.51471    2.82366   0.07158  0.07070  0.13966  0.03166 -0.02761  0.04860
2020/08/25 12:04:27.000   48.055185172    9.380320676   676.7138   6   9   2.1873   1.3152   2.7499   0.5947   1.1220  -0.1475   0.00    0.0    6.67420   29.12480    3.44021   0.07158  0.07070  0.13965  0.03167 -0.02759  0.04859
2020/08/25 12:04:28.000   48.055240181    9.380705327   680.5887   6   9   2.1872   1.3152   2.7497   0.5951   1.1221  -0.1460   0.00    0.0    7.34693   28.28088    4.40507   0.07316  0.07152  0.14095  0.02896 -0.03111  0.05148
2020/08/25 12:04:29.000   48.055311133    9.381081270   683.5515   6   9   2.1872   1.3152   2.7494   0.5955   1.1223  -0.1445   0.00    0.0    7.39720   27.82947    3.71475   0.07316  0.07152  0.14094  0.02897 -0.03110  0.05148
2020/08/25 12:04:30.000   48.055380812    9.381452598   687.5735   6   9   2.1872   1.3153   2.7491   0.5959   1.1224  -0.1429   0.00    0.0    6.92846   27.38346    3.05928   0.07588  0.07171  0.14510  0.02713 -0.02808  0.04421
2020/08/25 12:04:31.000   48.055430843    9.381818548   689.3216   6  10   1.9582   1.2847   2.7137   0.7939   1.0661   0.6378   0.00    0.0    6.23339   27.36798    3.05877   0.07394  0.07081  0.14425  0.03049 -0.02471  0.04109
2020/08/25 12:04:32.000   48.055486816    9.382193906   692.8466   6  10   1.9607   1.2851   2.7139   0.7924   1.0669   0.6345   0.00    0.0    5.37731   27.45418    0.91793   0.07394  0.07080  0.14424  0.03049 -0.02468  0.04108
2020/08/25 12:04:33.000   48.055518653    9.382555488   693.8991   6  10   1.9648   1.2857   2.7142   0.7897   1.0681   0.6289   0.00    0.0    5.01483   27.58583    1.76524   0.07394  0.07080  0.14423  0.03049 -0.02466  0.04107
2020/08/25 12:04:34.000   48.055563813    9.382931440   695.8461   6  10   1.9728   1.2868   2.7152   0.7841   1.0702   0.6176   0.00    0.0    5.37312   27.55263    1.14473   0.07159  0.07069  0.13958  0.03169 -0.02743  0.04855
2020/08/25 12:04:35.000   48.055624197    9.383289064   697.6243   6  11   1.9701   1.2490   2.5549   0.8324   0.9265   0.8015   0.00    0.0    5.48358   27.25707    4.18265   0.07146  0.06900  0.13538  0.03272 -0.03566  0.05003
2020/08/25 12:04:36.000   48.055683191    9.383666301   701.7267   6  10   2.1044   1.2467   2.5101   0.7798   0.8900   0.8048   0.00    0.0    5.54321   27.66131    0.56754   0.07296  0.06967  0.13712  0.03048 -0.03847  0.05314
2020/08/25 12:04:37.000   48.055731397    9.384031496   703.7266   6   9   2.1870   1.3157   2.7473   0.5986   1.1235  -0.1312   0.00    0.0    5.01254   27.38517    3.40779   0.07296  0.06966  0.13711  0.03049 -0.03846  0.05313
2020/08/25 12:04:38.000   48.055772663    9.384403753   707.5845   6   9   2.1870   1.3157   2.7471   0.5990   1.1236  -0.1295   0.00    0.0    4.34009   27.68727    2.47230   0.07317  0.07151  0.14086  0.02901 -0.03092  0.05144
2020/08/25 12:04:39.000   48.055796534    9.384764267   708.9167   6   9   2.1869   1.3158   2.7468   0.5994   1.1238  -0.1277   0.00    0.0    3.84105   27.32284    2.89381   0.07317  0.07151  0.14085  0.02901 -0.03090  0.05143
2020/08/25 12:04:40.000   48.055842012    9.385139163   712.4411   6   9   2.1869   1.3158   2.7466   0.5998   1.1239  -0.1259   0.00    0.0    4.26205   27.61212    1.85494   0.07317  0.07151  0.14084  0.02902 -0.03088  0.05143
2020/08/25 12:04:41.000   48.055882726    9.385507779   714.1616   6  10   2.1006   1.2435   2.4969   0.7887   0.8782   0.8247   0.00    0.0    5.02440   27.43897    1.36240   0.07296  0.06965  0.13706  0.03050 -0.03841  0.05311
2020/08/25 12:04:42.000   48.055925152    9.385875969   715.1148   6  10   2.1005   1.2434   2.4963   0.7892   0.8780   0.8254   0.00    0.0    5.84905   27.38561    1.36142   0.07296  0.06965  0.13705  0.03051 -0.03839  0.05311
2020/08/25 12:04:43.000   48.055977677    9.386241251   716.0862   6  11   1.9627   1.2388   2.5087   0.8491   0.8858   0.8443   0.00    0.0    6.22229   27.12949    2.96857   0.07146  0.06899  0.13528  0.03274 -0.03555  0.04998
2020/08/25 12:04:44.000   48.056033552    9.386602755   718.4437   6  11   1.9505   1.2493   2.5560   0.8414   0.9308   0.8009   0.00    0.0    6.36445   27.21872    0.08569   0.07146  0.06899  0.13527  0.03274 -0.03554  0.04997
2020/08/25 12:04:45.000   48.056093797    9.386966186   720.0535   6   9   2.1868   1.3162   2.7454   0.6017   1.1247  -0.1165   0.00    0.0    6.53168   26.81733    2.08878   0.07146  0.06899  0.13526  0.03274 -0.03552  0.04996
2020/08/25 12:04:46.000   48.056151435    9.387330014   722.4501   6   9   2.1868   1.3162   2.7451   0.6021   1.1248  -0.1145   0.00    0.0    6.53400   26.65005    1.62189   0.07317  0.07150  0.14078  0.02904 -0.03076  0.05140
2020/08/25 12:04:47.000   48.056216959    9.387686082   725.1431   6   9   2.1868   1.3163   2.7449   0.6025   1.1250  -0.1125   0.00    0.0    5.79219   26.37114    3.79792   0.07317  0.07150  0.14077  0.02905 -0.03075  0.05140
2020/08/25 12:04:48.000   48.056245789    9.388025904   727.3447   6   9   2.1868   1.3163   2.7447   0.6029   1.1252  -0.1104   0.00    0.0    5.01277   26.15891    4.55297   0.07317  0.07149  0.14076  0.02905 -0.03073  0.05139
2020/08/25 12:04:49.000   48.056300191    9.388376023   731.9722   6  10   1.9626   1.2868   2.7108   0.7948   1.0711   0.6337   0.00    0.0    4.88106   26.09403    3.79393   0.07159  0.07067  0.13942  0.03174 -0.02710  0.04847
2020/08/25 12:04:50.000   48.056349388    9.388728738   738.1534   6  10   1.9586   1.2864   2.7100   0.7979   1.0704   0.6393   0.00    0.0    5.73062   26.05168    3.31844   0.07159  0.07067  0.13941  0.03174 -0.02708  0.04846
2020/08/25 12:04:51.000   48.056399717    9.389082918   739.8538   6  10   1.9562   1.2862   2.7095   0.7998   1.0701   0.6427   0.00    0.0    6.35701   26.40169    2.21865   0.07159  0.07067  0.13940  0.03175 -0.02706  0.04846
2020/08/25 12:04:52.000   48.056454023    9.389435971   741.9041   6  10   1.9546   1.2861   2.7090   0.8012   1.0699   0.6451   0.00    0.0    6.60521   26.94431    1.18573   0.07159  0.07067  0.13939  0.03175 -0.02704  0.04845
2020/08/25 12:04:53.000   48.056514988    9.389806917   743.1514   6  10   1.9534   1.2860   2.7087   0.8022   1.0699   0.6468   0.00    0.0    6.83740   27.54808    0.51649   0.07159  0.07067  0.13938  0.03175 -0.02701  0.04845
2020/08/25 12:04:54.000   48.056581519    9.390185487   742.3374   6  10   1.9525   1.2860   2.7084   0.8031   1.0699   0.6481   0.00    0.0    7.19961   28.29027   -3.05066   0.07159  0.07067  0.13937  0.03176 -0.02699  0.04844
2020/08/25 12:04:55.000   48.056658665    9.390570584   740.5826   6  10   1.9519   1.2860   2.7081   0.8038   1.0699   0.6491   0.00    0.0    7.62013   28.99319   -1.68545   0.07159  0.07067  0.13935  0.03176 -0.02697  0.04843
2020/08/25 12:04:56.000   48.056722382    9.390961922   739.0465   6  10   1.9513   1.2860   2.7078   0.8044   1.0700   0.6499   0.00    0.0    6.91364   29.44279    0.65307   0.07159  0.07067  0.13934  0.03176 -0.02695  0.04843
2020/08/25 12:04:57.000   48.056774377    9.391354444   741.5682   6  11   1.9312   1.2424   2.5236   0.8602   0.9051   0.8335   0.00    0.0    5.64557   29.32265    2.83672   0.07147  0.06896  0.13510  0.03278 -0.03536  0.04989
2020/08/25 12:04:58.000   48.056821276    9.391740362   743.1101   6  11   1.9262   1.2314   2.4751   0.8734   0.8592   0.8726   0.00    0.0    4.95011   29.20517    3.27903   0.07147  0.06896  0.13509  0.03278 -0.03534  0.04988
2020/08/25 12:04:59.000   48.056865364    9.392130047   744.9771   6  10   1.9503   1.2862   2.7072   0.8059   1.0705   0.6517   0.00    0.0    4.84254   29.31724    1.56554   0.07147  0.06896  0.13508  0.03278 -0.03533  0.04988
2020/08/25 12:05:00.000   48.056912827    9.392526091   746.5935   6  10   1.9500   1.2862   2.7070   0.8063   1.0706   0.6522   0.00    0.0    4.66847   29.31477    0.65534   0.07159  0.07066  0.13930  0.03178 -0.02686  0.04841
2020/08/25 12:05:01.000   48.056956445    9.392918724   747.1799   6  10   1.9498   1.2863   2.7067   0.8067   1.0708   0.6526   0.00    0.0    5.09296   29.38813    0.77203   0.07159  0.07066  0.13929  0.03178 -0.02684  0.04840
2020/08/25 12:05:02.000   48.057000414    9.393319213   748.1172   6  10   1.9496   1.2864   2.7065   0.8070   1.0710   0.6529   0.00    0.0    5.50023   29.48541    0.28976   0.07159  0.07066  0.13928  0.03178 -0.02682  0.04839
2020/08/25 12:05:03.000   48.057054686    9.393715105   747.2329   6  11   1.9236   1.2274   2.4556   0.8797   0.8421   0.8873   0.00    0.0    5.83184   29.47970    0.49212   0.07147  0.06895  0.13503  0.03279 -0.03527  0.04985
2020/08/25 12:05:04.000   48.057107514    9.394108969   749.2130   6  11   1.9226   1.2253   2.4457   0.8825   0.8327   0.8947   0.00    0.0    5.81031   29.52634    1.34251   0.07147  0.06895  0.13502  0.03280 -0.03526  0.04985
2020/08/25 12:05:05.000   48.057153290    9.394504854   750.5158   6  11   1.9219   1.2240   2.4395   0.8843   0.8269   0.8992   0.00    0.0    5.13413   29.55137    2.28652   0.07147  0.06895  0.13500  0.03280 -0.03524  0.04984
2020/08/25 12:05:06.000   48.057194677    9.394908154   752.1530   6  11   1.9215   1.2231   2.4352   0.8855   0.8231   0.9022   0.00    0.0    4.18325   29.77704    1.09708   0.07390  0.06895  0.13713  0.03263 -0.03502  0.04506
2020/08/25 12:05:07.000   48.057225474    9.395306516   752.4352   6  11   1.9212   1.2225   2.4321   0.8865   0.8203   0.9044   0.00    0.0    3.12671   30.05864    0.54093   0.07390  0.06895  0.13712  0.03263 -0.03501  0.04505
2020/08/25 12:05:08.000   48.057259579    9.395710657   753.8573   6  11   1.9209   1.2221   2.4297   0.8873   0.8183   0.9061   0.00    0.0    3.23943   29.99506    2.35404   0.07390  0.06895  0.13710  0.03263 -0.03499  0.04504
2020/08/25 12:05:09.000   48.057285488    9.396113379   756.3092   6  11   1.9208   1.2217   2.4277   0.8880   0.8168   0.9073   0.00    0.0    3.68216   30.12559    1.82981   0.07390  0.06895  0.13709  0.03263 -0.03498  0.04504
2020/08/25 12:05:10.000   48.057324285    9.396515043   757.5569   6  11   1.9206   1.2215   2.4262   0.8885   0.8156   0.9083   0.00    0.0    3.50781   30.28434    1.17238   0.07390  0.06894  0.13708  0.03264 -0.03496  0.04503
2020/08/25 12:05:11.000   48.057345031    9.396922763   757.7650   6  11   1.9205   1.2213   2.4249   0.8890   0.8147   0.9091   0.00    0.0    3.19250   30.77875   -0.55513   0.07147  0.06894  0.13493  0.03282 -0.03516  0.04980
2020/08/25 12:05:12.000   48.057387045    9.397341549   758.4716   6  11   1.9204   1.2212   2.4237   0.8895   0.8139   0.9098   0.00    0.0    2.94141   30.94054    1.00094   0.07147  0.06894  0.13491  0.03282 -0.03515  0.04980
2020/08/25 12:05:13.000   48.057398461    9.397761140   758.4834   6  11   1.9204   1.2210   2.4227   0.8899   0.8133   0.9104   0.00    0.0    3.47086   31.05003    1.62463   0.07147  0.06894  0.13490  0.03282 -0.03513  0.04979
2020/08/25 12:05:14.000   48.057442864    9.398171515   762.9345   6  11   1.9203   1.2210   2.4219   0.8903   0.8129   0.9108   0.00    0.0    4.49643   30.72369    3.00443   0.07147  0.06893  0.13489  0.03283 -0.03512  0.04978
2020/08/25 12:05:15.000   48.057480479    9.398582703   765.4888   6  11   1.9203   1.2209   2.4211   0.8906   0.8125   0.9112   0.00    0.0    4.65508   30.45615    2.53074   0.07148  0.06893  0.13488  0.03283 -0.03511  0.04978
2020/08/25 12:05:16.000   48.057523375    9.398988240   768.4214   6  11   1.9203   1.2209   2.4205   0.8909   0.8122   0.9115   0.00    0.0    4.62328   30.07245    2.06123   0.07148  0.06893  0.13486  0.03283 -0.03509  0.04977
2020/08/25 12:05:17.000   48.057571290    9.399388943   771.9902   6  11   1.9203   1.2208   2.4198   0.8912   0.8120   0.9118   0.00    0.0    4.31365   29.34719    3.79050   0.07148  0.06893  0.13485  0.03283 -0.03508  0.04977
2020/08/25 12:05:18.000   48.057592231    9.399773074   773.9251   6  11   1.9203   1.2208   2.4193   0.8915   0.8119   0.9121   0.00    0.0    3.58368   28.99919    3.40394   0.07148  0.06893  0.13484  0.03284 -0.03507  0.04976
2020/08/25 12:05:19.000   48.057630635    9.400157795   777.9187   6  11   1.9203   1.2208   2.4188   0.8918   0.8118   0.9122   0.00    0.0    3.30741   28.39476    3.71030   0.07148  0.06893  0.13482  0.03284 -0.03505  0.04975
2020/08/25 12:05:20.000   48.057664672    9.400538265   782.1008   6  11   1.9203   1.2208   2.4183   0.8921   0.8117   0.9124   0.00    0.0    3.32755   28.04949    4.26835   0.07148  0.06892  0.13481  0.03284 -0.03504  0.04975
2020/08/25 12:05:21.000   48.057686256    9.400912650   784.3273   6  10   1.9489   1.2882   2.7033   0.8122   1.0750   0.6564   0.00    0.0    3.05145   28.17244    3.68245   0.07148  0.06892  0.13480  0.03284 -0.03502  0.04974
2020/08/25 12:05:22.000   48.057712849    9.401296542   788.0707   6  10   1.9490   1.2883   2.7032   0.8124   1.0753   0.6565   0.00    0.0    2.16735   28.64568    2.40966   0.07428  0.07072  0.14235  0.03079 -0.02435  0.04159
2020/08/25 12:05:23.000   48.057735537    9.401683713   790.6057   6  10   1.9490   1.2884   2.7030   0.8126   1.0755   0.6566   0.00    0.0    1.56305   29.30146    1.04673   0.07428  0.07072  0.14234  0.03079 -0.02432  0.04158
2020/08/25 12:05:24.000   48.057745006    9.402079120   790.7787   6  10   1.9490   1.2885   2.7028   0.8129   1.0757   0.6567   0.00    0.0    1.60206   29.78319    1.22710   0.07428  0.07072  0.14233  0.03079 -0.02430  0.04158
2020/08/25 12:05:25.000   48.057755692    9.402482874   793.0689   6  11   1.9206   1.2212   2.4171   0.8931   0.8124   0.9124   0.00    0.0    2.03236   29.97443    1.15310   0.07148  0.06891  0.13475  0.03286 -0.03497  0.04972
2020/08/25 12:05:26.000   48.057778860    9.402888806   794.2710   6  11   1.9207   1.2212   2.4167   0.8933   0.8124   0.9125   0.00    0.0    2.52905   29.92641    1.16713   0.07148  0.06891  0.13474  0.03286 -0.03495  0.04971
2020/08/25 12:05:27.000   48.057808262    9.403281445   795.8753   6  11   1.9207   1.2212   2.4164   0.8935   0.8125   0.9126   0.00    0.0    1.95692   29.63613    1.86302   0.07148  0.06891  0.13472  0.03286 -0.03494  0.04970
2020/08/25 12:05:28.000   48.057813466    9.403677847   797.5345   6  10   1.9492   1.2890   2.7022   0.8138   1.0767   0.6571   0.00    0.0    1.95149   29.06371    3.44803   0.07160  0.07063  0.13900  0.03187 -0.02624  0.04825
2020/08/25 12:05:29.000   48.057840012    9.404062162   800.5137   6  10   1.9492   1.2891   2.7021   0.8140   1.0769   0.6572   0.00    0.0    2.54574   28.62435    2.21323   0.07160  0.07063  0.13899  0.03187 -0.02622  0.04824
2020/08/25 12:05:30.000   48.057864981    9.404452083   804.1263   6  10   1.9492   1.2892   2.7019   0.8142   1.0771   0.6573   0.00    0.0    2.71353   28.31638    3.33636   0.07160  0.07063  0.13898  0.03188 -0.02619  0.04823
2020/08/25 12:05:31.000   48.057883481    9.404825414   806.4908   6  11   1.9210   1.2215   2.4154   0.8943   0.8131   0.9125   0.00    0.0    2.55826   28.15014    2.46141   0.07148  0.06890  0.13467  0.03287 -0.03489  0.04968
2020/08/25 12:05:32.000   48.057908258    9.405207328   809.2464   6  11   1.9211   1.2216   2.4151   0.8945   0.8132   0.9125   0.00    0.0    2.93935   28.28547    2.29785   0.07148  0.06890  0.13466  0.03287 -0.03487  0.04967
2020/08/25 12:05:33.000   48.057942164    9.405586643   810.5274   6  11   1.9212   1.2216   2.4149   0.8947   0.8134   0.9125   0.00    0.0    3.49891   28.32766    1.26922   0.07148  0.06890  0.13465  0.03288 -0.03486  0.04966
2020/08/25 12:05:34.000   48.057963058    9.405961207   810.6235   6  11   1.9212   1.2217   2.4146   0.8949   0.8135   0.9125   0.00    0.0    3.50391   28.36936    0.55565   0.07148  0.06890  0.13463  0.03288 -0.03484  0.04966
2020/08/25 12:05:35.000   48.058007825    9.406345750   812.8643   6  11   1.9213   1.2217   2.4144   0.8951   0.8137   0.9125   0.00    0.0    4.01162   28.33255    1.27462   0.07148  0.06890  0.13462  0.03288 -0.03483  0.04965
2020/08/25 12:05:36.000   48.058046001    9.406725978   816.1705   6  11   1.9214   1.2218   2.4142   0.8953   0.8139   0.9125   0.00    0.0    3.37717   28.08196    3.80390   0.07148  0.06890  0.13461  0.03289 -0.03482  0.04965
2020/08/25 12:05:37.000   48.058066267    9.407104438   818.7340   6  11   1.9215   1.2219   2.4140   0.8955   0.8141   0.9124   0.00    0.0    2.85025   28.16284    2.82151   0.07148  0.06889  0.13459  0.03289 -0.03480  0.04964
2020/08/25 12:05:38.000   48.058080046    9.407478104   822.5878   6  11   1.9216   1.2220   2.4138   0.8956   0.8143   0.9123   0.00    0.0    2.50567   28.45591    3.15165   0.07148  0.06889  0.13458  0.03289 -0.03479  0.04963
2020/08/25 12:05:39.000   48.058115993    9.407860218   825.1376   6  11   1.9217   1.2221   2.4137   0.8958   0.8146   0.9122   0.00    0.0    2.68928   28.57474    2.33466   0.07148  0.06889  0.13457  0.03289 -0.03477  0.04963
2020/08/25 12:05:40.000   48.058129842    9.408242153   827.9440   6  11   1.9218   1.2222   2.4136   0.8959   0.8149   0.9121   0.00    0.0    2.67384   29.07254    1.90573   0.07149  0.06889  0.13456  0.03290 -0.03476  0.04962
2020/08/25 12:05:41.000   48.058162750    9.408636959   829.5309   6  11   1.9219   1.2223   2.4135   0.8961   0.8152   0.9120   0.00    0.0    2.98904   29.18639    1.35777   0.07149  0.06889  0.13454  0.03290 -0.03475  0.04961
2020/08/25 12:05:42.000   48.058192692    9.409034303   831.7727   6  10   2.0828   1.2274   2.4139   0.8452   0.8125   0.9311   0.00    0.0    2.86793   29.51224    1.85420   0.07149  0.06888  0.13453  0.03290 -0.03473  0.04961
2020/08/25 12:05:43.000   48.058223841    9.409434342   832.5695   6  10   2.0830   1.2275   2.4138   0.8454   0.8128   0.9309   0.00    0.0    2.65838   29.51818    1.85484   0.07149  0.06888  0.13452  0.03290 -0.03472  0.04960
2020/08/25 12:05:44.000   48.058230231    9.409819551   833.8111   6  11   1.9222   1.2226   2.4134   0.8965   0.8162   0.9114   0.00    0.0    3.01490   29.35433    2.38324   0.07149  0.06888  0.13450  0.03291 -0.03471  0.04959
2020/08/25 12:05:45.000   48.058267213    9.410218795   834.9974   6  11   1.9223   1.2228   2.4135   0.8966   0.8167   0.9112   0.00    0.0    3.23759   29.10199    0.93987   0.07149  0.06888  0.13449  0.03291 -0.03469  0.04959
2020/08/25 12:05:46.000   48.058299300    9.410602414   838.8025   6  11   1.9225   1.2229   2.4135   0.8967   0.8171   0.9110   0.00    0.0    3.69296   28.73419    2.56581   0.07149  0.06888  0.13448  0.03291 -0.03468  0.04958
2020/08/25 12:05:47.000   48.058331855    9.410989443   840.9296   6  11   1.9226   1.2231   2.4136   0.8968   0.8176   0.9107   0.00    0.0    4.23234   28.34866    2.25461   0.07149  0.06888  0.13447  0.03291 -0.03466  0.04958
2020/08/25 12:05:48.000   48.058379688    9.411366471   843.6562   6  11   1.9228   1.2232   2.4138   0.8969   0.8182   0.9104   0.00    0.0    4.81604   28.24659    1.83427   0.07149  0.06887  0.13445  0.03292 -0.03465  0.04957
2020/08/25 12:05:49.000   48.058422162    9.411750000   844.7281   6  11   1.9229   1.2234   2.4140   0.8969   0.8188   0.9100   0.00    0.0    4.97006   28.55751    0.99093   0.07149  0.06887  0.13444  0.03292 -0.03464  0.04956
2020/08/25 12:05:50.000   48.058469959    9.412130946   844.6602   6  11   1.9231   1.2236   2.4144   0.8970   0.8195   0.9096   0.00    0.0    4.86989   28.72307    0.46223   0.07149  0.06887  0.13443  0.03292 -0.03462  0.04956
2020/08/25 12:05:51.000   48.058502233    9.412512671   845.6806   6  11   1.9232   1.2238   2.4147   0.8970   0.8203   0.9091   0.00    0.0    5.32987   28.99308    0.28650   0.07149  0.06887  0.13441  0.03293 -0.03461  0.04955
2020/08/25 12:05:52.000   48.058559391    9.412905634   845.3900   6  11   1.9234   1.2241   2.4152   0.8970   0.8212   0.9086   0.00    0.0    6.24382   29.05967    0.39520   0.07149  0.06887  0.13440  0.03293 -0.03460  0.04954
2020/08/25 12:05:53.000   48.058623374    9.413298385   846.5754   6  11   1.9236   1.2243   2.4158   0.8970   0.8222   0.9079   0.00    0.0    7.08061   29.03259    0.60402   0.07149  0.06887  0.13439  0.03293 -0.03458  0.04954
2020/08/25 12:05:54.000   48.058691234    9.413691407   847.7897   6  11   1.9238   1.2246   2.4166   0.8969   0.8233   0.9072   0.00    0.0    7.80225   28.94854    1.03314   0.07149  0.06886  0.13438  0.03293 -0.03457  0.04953
2020/08/25 12:05:55.000   48.058762144    9.414069747   849.7679   6  11   1.9240   1.2250   2.4176   0.8968   0.8247   0.9063   0.00    0.0    7.55927   29.03279    2.08281   0.07149  0.06886  0.13436  0.03294 -0.03455  0.04952
2020/08/25 12:05:56.000   48.058824501    9.414470665   849.6922   6  11   1.9243   1.2254   2.4188   0.8966   0.8263   0.9052   0.00    0.0    6.89074   29.40212   -0.01162   0.07149  0.06886  0.13435  0.03294 -0.03454  0.04952
2020/08/25 12:05:57.000   48.058883669    9.414865241   850.4878   6  11   1.9246   1.2259   2.4204   0.8963   0.8283   0.9038   0.00    0.0    6.82937   29.62808    1.20735   0.07149  0.06886  0.13434  0.03294 -0.03453  0.04951
2020/08/25 12:05:58.000   48.058938811    9.415268207   852.5662   6  11   1.9250   1.2265   2.4225   0.8959   0.8308   0.9021   0.00    0.0    6.64191   29.97292    1.93987   0.07149  0.06886  0.13432  0.03294 -0.03451  0.04950
2020/08/25 12:05:59.000   48.059003187    9.415666858   854.6579   6  11   1.9254   1.2273   2.4254   0.8953   0.8340   0.8998   0.00    0.0    6.07654   30.20134    1.87065   0.07149  0.06886  0.13431  0.03295 -0.03450  0.04950
2020/08/25 12:06:00.000   48.059061954    9.416073500   855.1163   6  11   1.9259   1.2284   2.4294   0.8944   0.8384   0.8967   0.00    0.0    5.30610   30.50695    0.82686   0.07149  0.06885  0.13430  0.03295 -0.03449  0.04949
2020/08/25 12:06:01.000   48.059097105    9.416483945   856.5088   6  11   1.9266   1.2299   2.4355   0.8930   0.8448   0.8921   0.00    0.0    4.58527   30.56149    1.53288   0.07149  0.06885  0.13428  0.03295 -0.03447  0.04948
2020/08/25 12:06:02.000   48.059135674    9.416892527   858.7380   6  11   1.9277   1.2324   2.4454   0.8906   0.8550   0.8846   0.00    0.0    4.42009   30.22247    2.51588   0.07149  0.06885  0.13427  0.03296 -0.03446  0.04948
2020/08/25 12:06:03.000   48.059176083    9.417294635   862.0443   6  11   1.9296   1.2370   2.4645   0.8859   0.8739   0.8703   0.00    0.0    4.58591   29.99425    2.60842   0.07149  0.06885  0.13426  0.03296 -0.03444  0.04947
2020/08/25 12:06:04.000   48.059221021    9.417701386   863.4798   6  11   1.9343   1.2489   2.5149   0.8731   0.9221   0.8310   0.00    0.0    4.49348   29.76991    2.27894   0.07149  0.06885  0.13425  0.03296 -0.03443  0.04947
2020/08/25 12:06:05.000   48.059260398    9.418101566   865.7287   6  10   1.9523   1.2934   2.6971   0.8210   1.0855   0.6587   0.00    0.0    3.97952   29.60121    1.81356   0.07161  0.07060  0.13859  0.03199 -0.02541  0.04803
2020/08/25 12:06:06.000   48.059292311    9.418489368   867.9732   6  10   1.9525   1.2936   2.6970   0.8212   1.0857   0.6586   0.00    0.0    3.62960   29.61040    2.53862   0.07161  0.07060  0.13858  0.03199 -0.02538  0.04802
2020/08/25 12:06:07.000   48.059321216    9.418889507   868.2979   6  10   1.9527   1.2937   2.6969   0.8213   1.0860   0.6585   0.00    0.0    3.42639   29.59969    0.79200   0.07161  0.07060  0.13857  0.03200 -0.02536  0.04802
2020/08/25 12:06:08.000   48.059358672    9.419287648   871.7537   6  10   1.9529   1.2939   2.6968   0.8214   1.0863   0.6584   0.00    0.0    3.73841   29.38798    2.64481   0.07161  0.07059  0.13856  0.03200 -0.02534  0.04801
2020/08/25 12:06:09.000   48.059392133    9.419683963   872.8031   6  10   1.9531   1.2940   2.6967   0.8215   1.0865   0.6582   0.00    0.0    4.49452   29.27591    0.70482   0.07161  0.07059  0.13855  0.03200 -0.02532  0.04800
2020/08/25 12:06:10.000   48.059449765    9.420074040   874.2111   6  10   1.9534   1.2941   2.6965   0.8216   1.0868   0.6581   0.00    0.0    4.79531   28.82250    2.55153   0.07161  0.07059  0.13854  0.03201 -0.02529  0.04800
2020/08/25 12:06:11.000   48.059467802    9.420448267   874.6615   6   9   2.1870   1.3234   2.7280   0.6357   1.1384   0.1613   0.00    0.0    4.69682   28.37394    2.83159   0.07161  0.07059  0.13852  0.03201 -0.02527  0.04799
2020/08/25 12:06:12.000   48.059521729    9.420833645   879.2347   6   9   2.1870   1.3234   2.7278   0.6361   1.1385   0.1627   0.00    0.0    4.15567   27.93611    2.47019   0.07319  0.07137  0.13991  0.02942 -0.02907  0.05100
2020/08/25 12:06:13.000   48.059551627    9.421196289   880.4758   6   9   2.1870   1.3235   2.7276   0.6364   1.1387   0.1641   0.00    0.0    3.53850   27.79292    2.52503   0.07319  0.07137  0.13990  0.02942 -0.02905  0.05100
2020/08/25 12:06:14.000   48.059584542    9.421576529   884.5008   6   9   2.1870   1.3236   2.7274   0.6368   1.1388   0.1654   0.00    0.0    3.03408   27.68196    2.43169   0.07319  0.07137  0.13989  0.02943 -0.02903  0.05099
2020/08/25 12:06:15.000   48.059606800    9.421941552   886.3940   6  10   1.9539   1.2948   2.6959   0.8226   1.0880   0.6582   0.00    0.0    2.69200   27.84568    1.92602   0.07161  0.07059  0.13848  0.03202 -0.02518  0.04797
2020/08/25 12:06:16.000   48.059633830    9.422320902   886.9441   6  10   1.9542   1.2949   2.6958   0.8226   1.0883   0.6579   0.00    0.0    2.76299   28.18571    0.12796   0.07161  0.07059  0.13847  0.03202 -0.02516  0.04796
2020/08/25 12:06:17.000   48.059650069    9.422700255   888.5699   6  10   1.9545   1.2951   2.6957   0.8226   1.0886   0.6577   0.00    0.0    3.43119   28.50690    0.87305   0.07161  0.07059  0.13846  0.03203 -0.02513  0.04796
2020/08/25 12:06:18.000   48.059688749    9.423083873   889.7374   6  10   1.9549   1.2953   2.6956   0.8226   1.0889   0.6573   0.00    0.0    4.55809   28.87648   -0.34467   0.07161  0.07059  0.13845  0.03203 -0.02511  0.04795
2020/08/25 12:06:19.000   48.059748118    9.423472829   887.6083   6  10   1.9554   1.2954   2.6955   0.8226   1.0892   0.6569   0.00    0.0    6.45150   28.87537    0.66197   0.07161  0.07058  0.13843  0.03203 -0.02509  0.04794
2020/08/25 12:06:20.000   48.059819254    9.423866914   891.2865   6  10   1.9559   1.2956   2.6954   0.8225   1.0895   0.6564   0.00    0.0    9.33625   28.31931    1.42471   0.07161  0.07058  0.13842  0.03204 -0.02506  0.04794
2020/08/25 12:06:21.000   48.059908926    9.424239146   891.1890   6  10   1.9566   1.2958   2.6953   0.8223   1.0898   0.6557   0.00    0.0   11.02930   27.80847    1.18721   0.07161  0.07058  0.13841  0.03204 -0.02504  0.04793
2020/08/25 12:06:22.000   48.060008511    9.424613269   892.1016   6  10   1.9574   1.2960   2.6953   0.8221   1.0902   0.6549   0.00    0.0   11.35482   27.86362    2.25181   0.07161  0.07058  0.13840  0.03204 -0.02502  0.04793
2020/08/25 12:06:23.000   48.060105808    9.424991137   893.4308   6  10   1.9584   1.2962   2.6953   0.8217   1.0907   0.6538   0.00    0.0   10.44137   28.14467    0.78565   0.07161  0.07058  0.13839  0.03205 -0.02500  0.04792
2020/08/25 12:06:24.000   48.060201024    9.425370154   895.2599   6  10   1.9596   1.2965   2.6953   0.8210   1.0911   0.6523   0.00    0.0    9.98293   28.29413    3.91259   0.07396  0.07072  0.14294  0.03072 -0.02150  0.04042
2020/08/25 12:06:25.000   48.060289266    9.425754174   897.1195   6  10   1.9614   1.2968   2.6954   0.8201   1.0917   0.6503   0.00    0.0    9.83856   28.39127    1.34923   0.07161  0.07058  0.13837  0.03205 -0.02495  0.04791
2020/08/25 12:06:26.000   48.060380481    9.426126529   898.9174   6  10   1.9641   1.2973   2.6956   0.8186   1.0925   0.6471   0.00    0.0   10.89160   28.27680    3.26964   0.07161  0.07058  0.13836  0.03206 -0.02493  0.04790
2020/08/25 12:06:27.000   48.060483413    9.426511552   902.9659   6  10   1.9683   1.2979   2.6960   0.8160   1.0936   0.6418   0.00    0.0   10.86816   28.18549    2.39285   0.07161  0.07058  0.13835  0.03206 -0.02490  0.04789
2020/08/25 12:06:28.000   48.060572284    9.426883665   905.9101   6  10   1.9766   1.2990   2.6969   0.8107   1.0955   0.6313   0.00    0.0   10.58954   28.59144    4.63567   0.07161  0.07058  0.13833  0.03206 -0.02488  0.04789
2020/08/25 12:06:29.000   48.060675519    9.427267069   908.0661   6  10   1.9998   1.3019   2.6997   0.7949   1.1006   0.6004   0.00    0.0   10.89280   28.55885    2.25688   0.07161  0.07057  0.13832  0.03207 -0.02486  0.04788
2020/08/25 12:06:30.000   48.060777568    9.427649600   912.5611   6   9   2.1872   1.3252   2.7245   0.6430   1.1414   0.1857   0.00    0.0   12.40859   28.42009    3.75495   0.07319  0.07135  0.13973  0.02950 -0.02872  0.05091
2020/08/25 12:06:31.000   48.060889631    9.428036791   914.3738   6   9   2.1872   1.3253   2.7243   0.6434   1.1416   0.1869   0.00    0.0   12.81666   28.45948   -1.51767   0.07319  0.07135  0.13972  0.02950 -0.02870  0.05091
2020/08/25 12:06:32.000   48.061026363    9.428413142   915.2809   6   9   2.1872   1.3254   2.7242   0.6438   1.1417   0.1880   0.00    0.0   14.10524   27.98315    2.06834   0.07319  0.07134  0.13971  0.02950 -0.02868  0.05090
2020/08/25 12:06:33.000   48.061137728    9.428786189   916.3799   6   9   2.1872   1.3255   2.7240   0.6442   1.1419   0.1892   0.00    0.0   13.83177   28.03670    3.57599   0.07319  0.07134  0.13970  0.02951 -0.02866  0.05090
2020/08/25 12:06:34.000   48.061258837    9.429159118   921.2731   6   9   2.1873   1.3256   2.7238   0.6445   1.1420   0.1903   0.00    0.0   14.03115   27.71333    4.93160   0.07319  0.07134  0.13968  0.02951 -0.02864  0.05089
2020/08/25 12:06:35.000   48.061387654    9.429531064   926.0647   6  10   1.9993   1.3025   2.6987   0.7969   1.1017   0.6024   0.00    0.0   15.28274   27.02434    3.80597   0.07161  0.07057  0.13826  0.03208 -0.02472  0.04784
2020/08/25 12:06:36.000   48.061534913    9.429892352   929.1550   6  10   1.9765   1.2999   2.6957   0.8129   1.0972   0.6330   0.00    0.0   16.45636   26.63206    2.94219   0.07161  0.07057  0.13824  0.03209 -0.02470  0.04784
2020/08/25 12:06:37.000   48.061678359    9.430242620   931.6429   6  10   1.9684   1.2991   2.6945   0.8186   1.0957   0.6435   0.00    0.0   17.25255   26.51366    1.06591   0.07161  0.07057  0.13823  0.03209 -0.02467  0.04783
2020/08/25 12:06:38.000   48.061841943    9.430605363   931.0175   6  10   1.9642   1.2987   2.6939   0.8216   1.0951   0.6488   0.00    0.0   18.05618   26.58445   -0.45294   0.07161  0.07057  0.13822  0.03209 -0.02465  0.04783
2020/08/25 12:06:39.000   48.062022425    9.430958519   930.9637   6  10   1.9617   1.2985   2.6934   0.8235   1.0948   0.6521   0.00    0.0   19.51620   25.90991    0.78302   0.07161  0.07057  0.13821  0.03210 -0.02463  0.04782
2020/08/25 12:06:40.000   48.062189715    9.431297129   932.9002   6  10   1.9601   1.2985   2.6931   0.8249   1.0947   0.6543   0.00    0.0   20.39771   25.33634    1.74963   0.07161  0.07056  0.13820  0.03210 -0.02460  0.04781
2020/08/25 12:06:41.000   48.062383078    9.431637442   936.1812   6  10   1.9589   1.2984   2.6928   0.8259   1.0946   0.6559   0.00    0.0   21.21160   24.72493    1.67539   0.07161  0.07056  0.13819  0.03210 -0.02458  0.04781
2020/08/25 12:06:42.000   48.062570345    9.431964686   936.9241   6  10   1.9581   1.2985   2.6925   0.8267   1.0947   0.6571   0.00    0.0   21.53344   24.21273    2.17281   0.07161  0.07056  0.13818  0.03211 -0.02456  0.04780
2020/08/25 12:06:43.000   48.062768749    9.432285049   939.0355   6  10   1.9574   1.2985   2.6923   0.8274   1.0947   0.6580   0.00    0.0   21.87404   23.57239    3.34673   0.07162  0.07056  0.13817  0.03211 -0.02453  0.04779
2020/08/25 12:06:44.000   48.062964238    9.432602567   943.8188   6  10   1.9569   1.2986   2.6921   0.8280   1.0949   0.6588   0.00    0.0   21.91205   23.24246    2.50633   0.07162  0.07056  0.13815  0.03211 -0.02451  0.04779
2020/08/25 12:06:45.000   48.063153849    9.432910494   944.3247   6  10   1.9565   1.2986   2.6919   0.8285   1.0950   0.6594   0.00    0.0   21.79991   23.40865    2.60176   0.07162  0.07056  0.13814  0.03212 -0.02449  0.04778
2020/08/25 12:06:46.000   48.063359089    9.433227173   945.8203   6  10   1.9561   1.2987   2.6917   0.8290   1.0951   0.6600   0.00    0.0   22.31213   23.12580    1.15473   0.07162  0.07056  0.13813  0.03212 -0.02446  0.04777
2020/08/25 12:06:47.000   48.063560212    9.433537871   948.1268   6  10   1.9559   1.2988   2.6915   0.8294   1.0953   0.6604   0.00    0.0   23.39056   22.87717   -0.19078   0.07162  0.07056  0.13812  0.03212 -0.02444  0.04777
2020/08/25 12:06:48.000   48.063788673    9.433841518   947.0193   6  10   1.9556   1.2989   2.6914   0.8298   1.0955   0.6608   0.00    0.0   24.34302   22.63599   -0.68384   0.07162  0.07056  0.13811  0.03213 -0.02442  0.04776
2020/08/25 12:06:49.000   48.064002643    9.434132849   947.1066   6  10   1.9554   1.2990   2.6912   0.8302   1.0956   0.6612   0.00    0.0   26.27674   21.43860    0.59287   0.07162  0.07056  0.13810  0.03213 -0.02439  0.04775
2020/08/25 12:06:50.000   48.064250008    9.434406684   947.5339   6  10   1.9553   1.2991   2.6911   0.8306   1.0958   0.6615   0.00    0.0   27.95102   19.47700    0.38240   0.07162  0.07055  0.13809  0.03213 -0.02437  0.04775
2020/08/25 12:06:51.000   48.064505160    9.434660895   948.7720   6  10   1.9552   1.2992   2.6909   0.8309   1.0960   0.6618   0.00    0.0   28.52592   18.40496    1.78488   0.07162  0.07055  0.13808  0.03214 -0.02435  0.04774
2020/08/25 12:06:52.000   48.064762122    9.434896653   951.9197   6  10   1.9550   1.2993   2.6908   0.8312   1.0962   0.6621   0.00    0.0   28.88628   16.89323    3.22605   0.07162  0.07055  0.13806  0.03214 -0.02432  0.04773
2020/08/25 12:06:53.000   48.065021412    9.435114296   955.0216   6  10   1.9549   1.2994   2.6906   0.8316   1.0964   0.6623   0.00    0.0   28.61297   16.01723    3.83507   0.07162  0.07055  0.13805  0.03214 -0.02430  0.04773
2020/08/25 12:06:54.000   48.065275377    9.435324269   958.3334   6  10   1.9549   1.2996   2.6905   0.8319   1.0966   0.6626   0.00    0.0   28.19492   15.75123    3.41762   0.07162  0.07055  0.13804  0.03215 -0.02428  0.04772
2020/08/25 12:06:55.000   48.065531424    9.435534862   961.3245   6  10   1.9548   1.2997   2.6903   0.8321   1.0968   0.6628   0.00    0.0   27.80540   15.68489    3.31509   0.07162  0.07055  0.13803  0.03215 -0.02425  0.04771
2020/08/25 12:06:56.000   48.065781026    9.435740182   963.2945   6  10   1.9548   1.2998   2.6902   0.8324   1.0970   0.6630   0.00    0.0   27.92709   15.21622    3.30278   0.07162  0.07055  0.13802  0.03215 -0.02423  0.04771
2020/08/25 12:06:57.000   48.066030613    9.435941695   968.1476   6  10   1.9547   1.2999   2.6900   0.8327   1.0973   0.6631   0.00    0.0   28.71618   14.16833    2.19816   0.07162  0.07055  0.13801  0.03216 -0.02420  0.04770
2020/08/25 12:06:58.000   48.066301234    9.436123918   969.0921   6  10   1.9547   1.3000   2.6899   0.8330   1.0975   0.6633   0.00    0.0   29.39391   13.04224    0.42632   0.07162  0.07055  0.13800  0.03216 -0.02418  0.04769
2020/08/25 12:06:59.000   48.066564956    9.436300279   971.7747   6  10   1.9547   1.3001   2.6897   0.8332   1.0977   0.6635   0.00    0.0   30.13116   12.15319    1.16138   0.07162  0.07055  0.13799  0.03216 -0.02416  0.04768
2020/08/25 12:07:00.000   48.066831236    9.436448900   969.7593   6  10   1.9546   1.3003   2.6896   0.8335   1.0979   0.6636   0.00    0.0   30.65378   11.55634   -0.09624   0.07162  0.07055  0.13797  0.03216 -0.02413  0.04768
2020/08/25 12:07:01.000   48.067114186    9.436597865   971.4756   6  10   1.9546   1.3004   2.6895   0.8338   1.0981   0.6638   0.00    0.0   31.41167   10.00309    0.74988   0.07162  0.07054  0.13796  0.03217 -0.02411  0.04767
2020/08/25 12:07:02.000   48.067402584    9.436717370   971.4057   6  10   1.9546   1.3005   2.6893   0.8340   1.0983   0.6639   0.00    0.0   31.93108    8.43535    0.99792   0.07162  0.07054  0.13795  0.03217 -0.02408  0.04766
2020/08/25 12:07:03.000   48.067685403    9.436829956   972.2958   6  10   1.9546   1.3006   2.6892   0.8343   1.0986   0.6640   0.00    0.0   32.20818    7.44725    0.70011   0.07162  0.07054  0.13794  0.03217 -0.02406  0.04766
2020/08/25 12:07:04.000   48.067978552    9.436922119   974.9111   6  10   1.9546   1.3008   2.6890   0.8345   1.0988   0.6642   0.00    0.0   32.32250    6.19121    2.56861   0.07162  0.07054  0.13793  0.03218 -0.02403  0.04765
2020/08/25 12:07:05.000   48.068269758    9.436996027   977.4458   6  10   1.9546   1.3009   2.6889   0.8348   1.0990   0.6643   0.00    0.0   32.21136    4.73347    2.83137   0.07162  0.07054  0.13792  0.03218 -0.02401  0.04764
2020/08/25 12:07:06.000   48.068562588    9.437047604   979.4800   6  10   1.9546   1.3010   2.6888   0.8350   1.0992   0.6644   0.00    0.0   32.13380    2.50011    2.88632   0.07162  0.07054  0.13791  0.03218 -0.02399  0.04764
2020/08/25 12:07:07.000   48.068839215    9.437065857   983.2156   6  10   1.9547   1.3011   2.6886   0.8352   1.0994   0.6645   0.00    0.0   31.92343    0.74380    3.16280   0.07162  0.07054  0.13789  0.03219 -0.02396  0.04763
2020/08/25 12:07:08.000   48.069126628    9.437060671   986.3514   6  10   1.9547   1.3013   2.6885   0.8355   1.0997   0.6646   0.00    0.0   31.62624   -0.99726    3.83359   0.07162  0.07054  0.13788  0.03219 -0.02394  0.04762
2020/08/25 12:07:09.000   48.069417412    9.437042824   988.1378   6  10   1.9547   1.3014   2.6883   0.8357   1.0999   0.6647   0.00    0.0   31.72600   -1.61162    0.52543   0.07162  0.07054  0.13787  0.03219 -0.02391  0.04762
2020/08/25 12:07:10.000   48.069713299    9.437023258   989.8552   6  10   1.9547   1.3015   2.6882   0.8359   1.1001   0.6648   0.00    0.0   31.42002   -2.19352    1.78363   0.07162  0.07054  0.13786  0.03220 -0.02389  0.04761
2020/08/25 12:07:11.000   48.069979455    9.436989319   991.3862   6  10   1.9547   1.3017   2.6881   0.8362   1.1004   0.6649   0.00    0.0   31.60382   -3.21513    0.93205   0.07162  0.07053  0.13785  0.03220 -0.02386  0.04760
2020/08/25 12:07:12.000   48.070274912    9.436936819   991.1950   6  10   1.9548   1.3018   2.6879   0.8364   1.1006   0.6650   0.00    0.0   31.25867   -5.09722    0.62268   0.07162  0.07053  0.13784  0.03220 -0.02384  0.04759
2020/08/25 12:07:13.000   48.070545751    9.436842210   991.1863   6  10   1.9548   1.3019   2.6878   0.8366   1.1008   0.6651   0.00    0.0   30.81120   -7.23478    1.89138   0.07162  0.07053  0.13783  0.03221 -0.02381  0.04759
2020/08/25 12:07:14.000   48.070820069    9.436737169   993.9258   6  10   1.9548   1.3020   2.6877   0.8369   1.1010   0.6652   0.00    0.0   30.31144   -8.54247    1.76156   0.07162  0.07053  0.13782  0.03221 -0.02379  0.04758
2020/08/25 12:07:15.000   48.071088484    9.436609289   995.8311   6  10   1.9548   1.3022   2.6875   0.8371   1.1013   0.6653   0.00    0.0   29.80067   -9.89790    2.69982   0.07162  0.07053  0.13780  0.03221 -0.02376  0.04757
