% program   : RTKPOST ver.2.4.3 b34
% inp file  : E:\Studium\M2-Satellitennavigation\SatellitenNaviUebung\3\Base_Alloy_1Hz\Base_Alloy_1Hz.obs
% inp file  : E:\Studium\M2-Satellitennavigation\SatellitenNaviUebung\3\Zusatzdaten\igs21202.sp3
% inp file  : E:\Studium\M2-Satellitennavigation\SatellitenNaviUebung\3\Zusatzdaten\igs21202.clk
% inp file  : E:\Studium\M2-Satellitennavigation\SatellitenNaviUebung\3\Zusatzdaten\BRDC00IGS_R_20202380000_01D_MN.rnx
% obs start : 2020/08/25 12:03:00.0 GPST (week2120 216180.0s)
% obs end   : 2020/08/25 12:20:00.0 GPST (week2120 217200.0s)
% pos mode  : PPP Static
% solution  : Combined
% elev mask : 5.0 deg
% dynamics  : off
% tidecorr  : off
% tropo opt : Estimate ZTD
% ephemeris : Broadcast
% navi sys  : GPS GLONASS Galileo
% antenna1  :                       ( 0.0000  0.0000  0.0000)
%
% (lat/lon/height=WGS84/ellipsoidal,Q=1:fix,2:float,3:sbas,4:dgps,5:single,6:ppp,ns=# of satellites)
%  GPST                  latitude(deg) longitude(deg)  height(m)   Q  ns   sdn(m)   sde(m)   sdu(m)  sdne(m)  sdeu(m)  sdun(m) age(s)  ratio    vn(m/s)    ve(m/s)    vu(m/s)      sdvn     sdve     sdvu    sdvne    sdveu    sdvun
2020/08/25 12:03:00.000   48.053610189    9.361894648   606.0050   6  18   0.0752   0.0619   0.2074   0.0294   0.0540  -0.0350   0.00    0.0    0.00879   -0.00138    0.01753   0.07141  0.06919  0.13655  0.03243 -0.03701  0.05058
2020/08/25 12:03:01.000   48.053610192    9.361894651   606.0028   6  18   0.0752   0.0619   0.2073   0.0294   0.0539  -0.0349   0.00    0.0    0.00262   -0.00704    0.01718   0.07141  0.06918  0.13653  0.03244 -0.03700  0.05057
2020/08/25 12:03:02.000   48.053610194    9.361894643   606.0045   6  18   0.0752   0.0619   0.2072   0.0294   0.0539  -0.0348   0.00    0.0    0.00671   -0.00211    0.02396   0.07141  0.06918  0.13652  0.03244 -0.03699  0.05057
2020/08/25 12:03:03.000   48.053610192    9.361894649   606.0039   6  18   0.0752   0.0619   0.2070   0.0294   0.0538  -0.0348   0.00    0.0    0.00411   -0.00187    0.02295   0.07141  0.06918  0.13651  0.03244 -0.03697  0.05056
2020/08/25 12:03:04.000   48.053610193    9.361894651   606.0020   6  18   0.0752   0.0619   0.2069   0.0294   0.0538  -0.0347   0.00    0.0    0.00516   -0.00552    0.01645   0.07141  0.06918  0.13650  0.03245 -0.03696  0.05056
2020/08/25 12:03:05.000   48.053610198    9.361894644   605.9980   6  18   0.0752   0.0619   0.2068   0.0294   0.0537  -0.0347   0.00    0.0    0.00288   -0.00128    0.02236   0.07141  0.06918  0.13649  0.03245 -0.03694  0.05055
2020/08/25 12:03:06.000   48.053610194    9.361894642   605.9991   6  18   0.0752   0.0619   0.2067   0.0294   0.0537  -0.0346   0.00    0.0    0.00542    0.00033    0.01774   0.07141  0.06917  0.13647  0.03245 -0.03693  0.05055
2020/08/25 12:03:07.000   48.053610198    9.361894641   605.9976   6  18   0.0752   0.0619   0.2066   0.0294   0.0536  -0.0346   0.00    0.0    0.00347   -0.00097    0.02502   0.07141  0.06917  0.13646  0.03245 -0.03691  0.05054
2020/08/25 12:03:08.000   48.053610200    9.361894638   605.9965   6  18   0.0752   0.0619   0.2065   0.0294   0.0536  -0.0345   0.00    0.0   -0.00041   -0.00053    0.01519   0.07141  0.06917  0.13645  0.03246 -0.03690  0.05053
2020/08/25 12:03:09.000   48.053610195    9.361894634   605.9953   6  18   0.0752   0.0619   0.2064   0.0295   0.0535  -0.0345   0.00    0.0    0.00326   -0.00203    0.01959   0.07141  0.06917  0.13644  0.03246 -0.03688  0.05053
2020/08/25 12:03:10.000   48.053610199    9.361894634   605.9961   6  18   0.0752   0.0619   0.2064   0.0295   0.0535  -0.0344   0.00    0.0    0.00658   -0.00480    0.02264   0.07141  0.06917  0.13643  0.03246 -0.03687  0.05052
2020/08/25 12:03:11.000   48.053610205    9.361894635   605.9917   6  18   0.0752   0.0619   0.2063   0.0295   0.0535  -0.0344   0.00    0.0    0.00038    0.00431    0.01971   0.07141  0.06916  0.13641  0.03247 -0.03685  0.05052
2020/08/25 12:03:12.000   48.053610205    9.361894634   605.9932   6  18   0.0752   0.0619   0.2062   0.0295   0.0534  -0.0343   0.00    0.0    0.01209   -0.00306    0.02315   0.07141  0.06916  0.13640  0.03247 -0.03684  0.05051
2020/08/25 12:03:13.000   48.053610206    9.361894635   605.9903   6  18   0.0752   0.0619   0.2061   0.0295   0.0534  -0.0343   0.00    0.0    0.00875   -0.00371    0.02488   0.07141  0.06916  0.13639  0.03247 -0.03682  0.05051
2020/08/25 12:03:14.000   48.053610202    9.361894619   605.9902   6  18   0.0752   0.0619   0.2060   0.0295   0.0533  -0.0343   0.00    0.0   -0.00094   -0.00273    0.00249   0.07142  0.06916  0.13638  0.03248 -0.03681  0.05050
2020/08/25 12:03:15.000   48.053610210    9.361894625   605.9889   6  18   0.0752   0.0619   0.2060   0.0295   0.0533  -0.0342   0.00    0.0    0.00081    0.00247    0.01438   0.07142  0.06915  0.13637  0.03248 -0.03679  0.05050
2020/08/25 12:03:16.000   48.053610210    9.361894624   605.9880   6  18   0.0752   0.0619   0.2059   0.0295   0.0533  -0.0342   0.00    0.0    0.00196   -0.00626    0.01683   0.07142  0.06915  0.13635  0.03248 -0.03678  0.05049
2020/08/25 12:03:17.000   48.053610210    9.361894628   605.9883   6  18   0.0752   0.0619   0.2058   0.0295   0.0532  -0.0341   0.00    0.0    0.00132   -0.00378    0.02424   0.07142  0.06915  0.13634  0.03249 -0.03676  0.05048
2020/08/25 12:03:18.000   48.053610208    9.361894625   605.9867   6  18   0.0752   0.0619   0.2058   0.0295   0.0532  -0.0341   0.00    0.0    0.00475   -0.00329    0.02126   0.07142  0.06915  0.13633  0.03249 -0.03675  0.05048
2020/08/25 12:03:19.000   48.053610208    9.361894620   605.9850   6  18   0.0752   0.0619   0.2057   0.0295   0.0532  -0.0341   0.00    0.0   -0.00294   -0.00684    0.01368   0.07142  0.06915  0.13632  0.03249 -0.03673  0.05047
2020/08/25 12:03:20.000   48.053610207    9.361894624   605.9831   6  18   0.0752   0.0619   0.2056   0.0295   0.0532  -0.0341   0.00    0.0    0.00754   -0.00401    0.02109   0.07142  0.06914  0.13630  0.03250 -0.03672  0.05047
2020/08/25 12:03:21.000   48.053610214    9.361894618   605.9839   6  18   0.0752   0.0618   0.2056   0.0295   0.0531  -0.0340   0.00    0.0    0.00479   -0.00426    0.02235   0.07142  0.06914  0.13629  0.03250 -0.03671  0.05046
2020/08/25 12:03:22.000   48.053610213    9.361894621   605.9822   6  18   0.0752   0.0618   0.2055   0.0295   0.0531  -0.0340   0.00    0.0    0.00642   -0.00217    0.01782   0.07142  0.06914  0.13628  0.03250 -0.03669  0.05046
2020/08/25 12:03:23.000   48.053610209    9.361894623   605.9832   6  18   0.0752   0.0618   0.2055   0.0295   0.0531  -0.0340   0.00    0.0    0.00559   -0.00400    0.02398   0.07142  0.06914  0.13627  0.03251 -0.03668  0.05045
2020/08/25 12:03:24.000   48.053610214    9.361894630   605.9820   6  18   0.0752   0.0618   0.2054   0.0295   0.0530  -0.0339   0.00    0.0   -0.00245   -0.00155    0.01322   0.07142  0.06914  0.13626  0.03251 -0.03666  0.05044
2020/08/25 12:03:25.000   48.053610215    9.361894622   605.9795   6  18   0.0752   0.0618   0.2054   0.0295   0.0530  -0.0339   0.00    0.0    0.00573   -0.00365    0.01569   0.07142  0.06913  0.13624  0.03251 -0.03665  0.05044
2020/08/25 12:03:26.000   48.053610220    9.361894622   605.9794   6  18   0.0752   0.0618   0.2053   0.0295   0.0530  -0.0339   0.00    0.0    0.00310   -0.00377    0.02390   0.07142  0.06913  0.13623  0.03251 -0.03663  0.05043
2020/08/25 12:03:27.000   48.053610215    9.361894613   605.9776   6  18   0.0752   0.0618   0.2053   0.0295   0.0530  -0.0339   0.00    0.0    0.00646   -0.00311    0.02467   0.07142  0.06913  0.13622  0.03252 -0.03662  0.05043
2020/08/25 12:03:28.000   48.053610218    9.361894621   605.9793   6  18   0.0752   0.0618   0.2052   0.0295   0.0530  -0.0338   0.00    0.0    0.00108   -0.00101    0.01827   0.07142  0.06913  0.13621  0.03252 -0.03660  0.05042
2020/08/25 12:03:29.000   48.053610219    9.361894615   605.9786   6  18   0.0752   0.0618   0.2052   0.0295   0.0529  -0.0338   0.00    0.0    0.00354   -0.00521    0.02173   0.07142  0.06913  0.13620  0.03252 -0.03659  0.05042
2020/08/25 12:03:30.000   48.053610222    9.361894614   605.9785   6  18   0.0752   0.0618   0.2051   0.0296   0.0529  -0.0338   0.00    0.0    0.00432    0.00056    0.02552   0.07143  0.06912  0.13618  0.03253 -0.03657  0.05041
2020/08/25 12:03:31.000   48.053610218    9.361894614   605.9776   6  18   0.0752   0.0618   0.2051   0.0296   0.0529  -0.0338   0.00    0.0    0.00025   -0.00489    0.01564   0.07143  0.06912  0.13617  0.03253 -0.03656  0.05040
2020/08/25 12:03:32.000   48.053610219    9.361894615   605.9798   6  18   0.0752   0.0618   0.2051   0.0296   0.0529  -0.0337   0.00    0.0   -0.00301   -0.00236    0.01183   0.07143  0.06912  0.13616  0.03253 -0.03654  0.05040
2020/08/25 12:03:33.000   48.053610222    9.361894615   605.9791   6  18   0.0752   0.0618   0.2050   0.0296   0.0529  -0.0337   0.00    0.0    0.00258   -0.00325    0.01865   0.07143  0.06912  0.13615  0.03254 -0.03653  0.05039
2020/08/25 12:03:34.000   48.053610219    9.361894612   605.9804   6  18   0.0752   0.0618   0.2050   0.0296   0.0528  -0.0337   0.00    0.0    0.00375   -0.00221    0.01015   0.07143  0.06912  0.13614  0.03254 -0.03651  0.05039
2020/08/25 12:03:35.000   48.053610214    9.361894610   605.9816   6  18   0.0752   0.0618   0.2049   0.0296   0.0528  -0.0337   0.00    0.0    0.00622   -0.00061    0.02131   0.07143  0.06911  0.13612  0.03254 -0.03650  0.05038
2020/08/25 12:03:36.000   48.053610216    9.361894616   605.9797   6  18   0.0752   0.0618   0.2049   0.0296   0.0528  -0.0337   0.00    0.0   -0.00001   -0.00446    0.01527   0.07143  0.06911  0.13611  0.03255 -0.03648  0.05037
2020/08/25 12:03:37.000   48.053610221    9.361894615   605.9797   6  18   0.0752   0.0618   0.2049   0.0296   0.0528  -0.0336   0.00    0.0    0.00236   -0.00213    0.02205   0.07143  0.06911  0.13610  0.03255 -0.03647  0.05037
2020/08/25 12:03:38.000   48.053610218    9.361894624   605.9801   6  18   0.0752   0.0618   0.2048   0.0296   0.0528  -0.0336   0.00    0.0    0.00098   -0.00182    0.01622   0.07143  0.06911  0.13609  0.03255 -0.03646  0.05036
2020/08/25 12:03:39.000   48.053610220    9.361894614   605.9808   6  18   0.0752   0.0618   0.2048   0.0296   0.0527  -0.0336   0.00    0.0    0.00211   -0.00387    0.02339   0.07143  0.06911  0.13607  0.03255 -0.03644  0.05036
2020/08/25 12:03:40.000   48.053610217    9.361894623   605.9800   6  18   0.0752   0.0618   0.2048   0.0296   0.0527  -0.0336   0.00    0.0    0.00120   -0.00041    0.01897   0.07143  0.06910  0.13606  0.03256 -0.03643  0.05035
2020/08/25 12:03:41.000   48.053610218    9.361894615   605.9811   6  18   0.0752   0.0618   0.2047   0.0296   0.0527  -0.0336   0.00    0.0    0.00425   -0.00254    0.01399   0.07143  0.06910  0.13605  0.03256 -0.03641  0.05035
2020/08/25 12:03:42.000   48.053610220    9.361894615   605.9808   6  18   0.0752   0.0618   0.2047   0.0296   0.0527  -0.0335   0.00    0.0    0.00035   -0.00376    0.01943   0.07143  0.06910  0.13604  0.03256 -0.03640  0.05034
2020/08/25 12:03:43.000   48.053610217    9.361894618   605.9837   6  18   0.0752   0.0618   0.2047   0.0296   0.0527  -0.0335   0.00    0.0    0.00357   -0.00009    0.02155   0.07143  0.06910  0.13603  0.03257 -0.03638  0.05033
2020/08/25 12:03:44.000   48.053610223    9.361894622   605.9818   6  18   0.0752   0.0618   0.2046   0.0296   0.0527  -0.0335   0.00    0.0    0.00716   -0.00184    0.02650   0.07143  0.06910  0.13601  0.03257 -0.03637  0.05033
2020/08/25 12:03:45.000   48.053610223    9.361894617   605.9833   6  18   0.0752   0.0618   0.2046   0.0296   0.0527  -0.0335   0.00    0.0    0.00383   -0.00025    0.01223   0.07143  0.06909  0.13600  0.03257 -0.03635  0.05032
2020/08/25 12:03:46.000   48.053610218    9.361894609   605.9824   6  18   0.0752   0.0618   0.2046   0.0296   0.0526  -0.0335   0.00    0.0    0.00708   -0.00379    0.02757   0.07144  0.06909  0.13599  0.03258 -0.03634  0.05032
2020/08/25 12:03:47.000   48.053610225    9.361894622   605.9836   6  18   0.0752   0.0618   0.2046   0.0296   0.0526  -0.0335   0.00    0.0    0.00444    0.00045    0.02382   0.07144  0.06909  0.13598  0.03258 -0.03632  0.05031
2020/08/25 12:03:48.000   48.053610229    9.361894615   605.9819   6  18   0.0752   0.0618   0.2045   0.0296   0.0526  -0.0334   0.00    0.0    0.00055   -0.00512    0.01724   0.07144  0.06909  0.13596  0.03258 -0.03631  0.05030
2020/08/25 12:03:49.000   48.053610223    9.361894610   605.9811   6  18   0.0752   0.0618   0.2045   0.0296   0.0526  -0.0334   0.00    0.0    0.00557   -0.00312    0.02189   0.07144  0.06909  0.13595  0.03259 -0.03629  0.05030
2020/08/25 12:03:50.000   48.053610221    9.361894611   605.9814   6  18   0.0752   0.0618   0.2045   0.0296   0.0526  -0.0334   0.00    0.0    0.00163   -0.00371    0.01547   0.07144  0.06908  0.13594  0.03259 -0.03628  0.05029
2020/08/25 12:03:51.000   48.053610224    9.361894614   605.9824   6  18   0.0752   0.0618   0.2045   0.0296   0.0526  -0.0334   0.00    0.0    0.00373   -0.00278    0.01717   0.07144  0.06908  0.13593  0.03259 -0.03626  0.05029
2020/08/25 12:03:52.000   48.053610221    9.361894614   605.9812   6  18   0.0752   0.0618   0.2044   0.0296   0.0526  -0.0334   0.00    0.0    0.00693   -0.00570    0.02609   0.07144  0.06908  0.13592  0.03260 -0.03625  0.05028
2020/08/25 12:03:53.000   48.053610225    9.361894619   605.9812   6  18   0.0752   0.0618   0.2044   0.0296   0.0526  -0.0334   0.00    0.0    0.00998   -0.00047    0.02364   0.07144  0.06908  0.13590  0.03260 -0.03624  0.05028
2020/08/25 12:03:54.000   48.053610226    9.361894616   605.9808   6  18   0.0752   0.0618   0.2044   0.0296   0.0525  -0.0334   0.00    0.0    0.00498   -0.00271    0.01625   0.07144  0.06908  0.13589  0.03260 -0.03622  0.05027
2020/08/25 12:03:55.000   48.053610226    9.361894615   605.9796   6  18   0.0752   0.0618   0.2044   0.0296   0.0525  -0.0334   0.00    0.0    0.00325   -0.00789    0.02242   0.07144  0.06907  0.13588  0.03260 -0.03621  0.05026
2020/08/25 12:03:56.000   48.053610226    9.361894618   605.9786   6  18   0.0752   0.0618   0.2043   0.0296   0.0525  -0.0333   0.00    0.0    0.00714   -0.00215    0.02852   0.07144  0.06907  0.13587  0.03261 -0.03619  0.05026
2020/08/25 12:03:57.000   48.053610225    9.361894608   605.9792   6  18   0.0752   0.0618   0.2043   0.0296   0.0525  -0.0333   0.00    0.0    0.00123   -0.00108    0.01024   0.07144  0.06907  0.13585  0.03261 -0.03618  0.05025
2020/08/25 12:03:58.000   48.053610222    9.361894610   605.9779   6  18   0.0752   0.0618   0.2043   0.0296   0.0525  -0.0333   0.00    0.0    0.00395   -0.00029    0.01789   0.07144  0.06907  0.13584  0.03261 -0.03616  0.05025
2020/08/25 12:03:59.000   48.053610225    9.361894608   605.9776   6  18   0.0752   0.0618   0.2043   0.0296   0.0525  -0.0333   0.00    0.0    0.00684   -0.00377    0.02173   0.07144  0.06907  0.13583  0.03262 -0.03615  0.05024
2020/08/25 12:04:00.000   48.053610228    9.361894604   605.9753   6  18   0.0752   0.0618   0.2043   0.0296   0.0525  -0.0333   0.00    0.0    0.00552   -0.00508    0.01906   0.07144  0.06906  0.13582  0.03262 -0.03613  0.05023
2020/08/25 12:04:01.000   48.053610229    9.361894604   605.9729   6  18   0.0752   0.0618   0.2042   0.0296   0.0525  -0.0333   0.00    0.0    0.00108   -0.00304    0.01919   0.07144  0.06906  0.13580  0.03262 -0.03612  0.05023
2020/08/25 12:04:02.000   48.053610229    9.361894607   605.9719   6  18   0.0752   0.0618   0.2042   0.0296   0.0525  -0.0333   0.00    0.0    0.00383   -0.00059    0.02480   0.07144  0.06906  0.13579  0.03263 -0.03610  0.05022
2020/08/25 12:04:03.000   48.053610232    9.361894601   605.9714   6  18   0.0752   0.0618   0.2042   0.0296   0.0525  -0.0333   0.00    0.0   -0.00304   -0.00292    0.01815   0.07145  0.06906  0.13578  0.03263 -0.03609  0.05022
2020/08/25 12:04:04.000   48.053610241    9.361894601   605.9693   6  18   0.0752   0.0618   0.2042   0.0296   0.0525  -0.0333   0.00    0.0    0.00661    0.00108    0.02144   0.07145  0.06906  0.13577  0.03263 -0.03607  0.05021
2020/08/25 12:04:05.000   48.053610234    9.361894606   605.9701   6  18   0.0752   0.0618   0.2042   0.0296   0.0524  -0.0332   0.00    0.0    0.00597   -0.00847    0.02486   0.07145  0.06905  0.13576  0.03263 -0.03606  0.05020
2020/08/25 12:04:06.000   48.053610237    9.361894597   605.9690   6  18   0.0752   0.0618   0.2042   0.0296   0.0524  -0.0332   0.00    0.0   -0.00004   -0.00150    0.02872   0.07145  0.06905  0.13574  0.03264 -0.03604  0.05020
2020/08/25 12:04:07.000   48.053610238    9.361894600   605.9671   6  18   0.0752   0.0618   0.2041   0.0296   0.0524  -0.0332   0.00    0.0    0.01130   -0.00319    0.02865   0.07145  0.06905  0.13573  0.03264 -0.03603  0.05019
2020/08/25 12:04:08.000   48.053610235    9.361894603   605.9677   6  18   0.0752   0.0618   0.2041   0.0296   0.0524  -0.0332   0.00    0.0    0.00359   -0.00479    0.02247   0.07145  0.06905  0.13572  0.03264 -0.03601  0.05019
2020/08/25 12:04:09.000   48.053610240    9.361894601   605.9647   6  18   0.0752   0.0618   0.2041   0.0296   0.0524  -0.0332   0.00    0.0    0.00705   -0.00235    0.02541   0.07145  0.06905  0.13571  0.03265 -0.03600  0.05018
2020/08/25 12:04:10.000   48.053610238    9.361894593   605.9662   6  18   0.0752   0.0618   0.2041   0.0296   0.0524  -0.0332   0.00    0.0    0.00474   -0.00466    0.02491   0.07145  0.06904  0.13569  0.03265 -0.03599  0.05018
2020/08/25 12:04:11.000   48.053610241    9.361894600   605.9648   6  18   0.0752   0.0618   0.2041   0.0296   0.0524  -0.0332   0.00    0.0   -0.00064    0.00030    0.01543   0.07145  0.06904  0.13568  0.03265 -0.03597  0.05017
2020/08/25 12:04:12.000   48.053610237    9.361894596   605.9653   6  18   0.0752   0.0618   0.2041   0.0296   0.0524  -0.0332   0.00    0.0    0.00640   -0.00366    0.01743   0.07145  0.06904  0.13567  0.03266 -0.03596  0.05016
2020/08/25 12:04:13.000   48.053610239    9.361894593   605.9644   6  18   0.0752   0.0618   0.2041   0.0296   0.0524  -0.0332   0.00    0.0    0.00474    0.00285    0.01868   0.07145  0.06904  0.13566  0.03266 -0.03594  0.05016
2020/08/25 12:04:14.000   48.053610240    9.361894592   605.9647   6  18   0.0752   0.0618   0.2040   0.0296   0.0524  -0.0332   0.00    0.0   -0.00086   -0.00549    0.01945   0.07145  0.06904  0.13564  0.03266 -0.03593  0.05015
2020/08/25 12:04:15.000   48.053610238    9.361894597   605.9643   6  18   0.0752   0.0618   0.2040   0.0296   0.0524  -0.0332   0.00    0.0    0.00781   -0.00129    0.02834   0.07145  0.06903  0.13563  0.03267 -0.03591  0.05015
2020/08/25 12:04:16.000   48.053610242    9.361894603   605.9656   6  18   0.0752   0.0618   0.2040   0.0296   0.0524  -0.0332   0.00    0.0    0.00640   -0.00555    0.02663   0.07145  0.06903  0.13562  0.03267 -0.03590  0.05014
2020/08/25 12:04:17.000   48.053610235    9.361894594   605.9657   6  18   0.0752   0.0618   0.2040   0.0296   0.0524  -0.0331   0.00    0.0    0.00040   -0.00530    0.01793   0.07145  0.06903  0.13561  0.03267 -0.03588  0.05013
2020/08/25 12:04:18.000   48.053610247    9.361894603   605.9645   6  18   0.0752   0.0618   0.2040   0.0296   0.0524  -0.0331   0.00    0.0    0.00274   -0.00487    0.03363   0.07145  0.06903  0.13559  0.03267 -0.03587  0.05013
2020/08/25 12:04:19.000   48.053610241    9.361894598   605.9644   6  18   0.0752   0.0618   0.2040   0.0296   0.0523  -0.0331   0.00    0.0    0.00701   -0.00341    0.02815   0.07145  0.06903  0.13558  0.03268 -0.03585  0.05012
2020/08/25 12:04:20.000   48.053610239    9.361894599   605.9641   6  18   0.0752   0.0618   0.2040   0.0296   0.0523  -0.0331   0.00    0.0    0.00165   -0.00335    0.02119   0.07146  0.06902  0.13557  0.03268 -0.03584  0.05012
2020/08/25 12:04:21.000   48.053610243    9.361894605   605.9658   6  18   0.0752   0.0618   0.2040   0.0297   0.0523  -0.0331   0.00    0.0   -0.00101   -0.00157    0.01408   0.07146  0.06902  0.13556  0.03268 -0.03582  0.05011
2020/08/25 12:04:22.000   48.053610242    9.361894597   605.9644   6  18   0.0752   0.0618   0.2040   0.0297   0.0523  -0.0331   0.00    0.0    0.00566   -0.00191    0.02654   0.07146  0.06902  0.13555  0.03269 -0.03581  0.05010
2020/08/25 12:04:23.000   48.053610242    9.361894600   605.9662   6  18   0.0752   0.0618   0.2039   0.0297   0.0523  -0.0331   0.00    0.0    0.00387   -0.00682    0.01019   0.07146  0.06902  0.13553  0.03269 -0.03579  0.05010
2020/08/25 12:04:24.000   48.053610247    9.361894601   605.9639   6  18   0.0752   0.0618   0.2039   0.0297   0.0523  -0.0331   0.00    0.0    0.00373   -0.00397    0.01831   0.07146  0.06902  0.13552  0.03269 -0.03578  0.05009
2020/08/25 12:04:25.000   48.053610242    9.361894603   605.9662   6  18   0.0752   0.0618   0.2039   0.0297   0.0523  -0.0331   0.00    0.0   -0.00020   -0.00662    0.01443   0.07146  0.06901  0.13551  0.03270 -0.03577  0.05009
2020/08/25 12:04:26.000   48.053610246    9.361894603   605.9658   6  18   0.0752   0.0618   0.2039   0.0297   0.0523  -0.0331   0.00    0.0    0.00188   -0.00616    0.02057   0.07146  0.06901  0.13550  0.03270 -0.03575  0.05008
2020/08/25 12:04:27.000   48.053610242    9.361894601   605.9654   6  18   0.0752   0.0618   0.2039   0.0297   0.0523  -0.0331   0.00    0.0    0.00486   -0.00372    0.03179   0.07146  0.06901  0.13548  0.03270 -0.03574  0.05007
2020/08/25 12:04:28.000   48.053610244    9.361894607   605.9656   6  18   0.0752   0.0618   0.2039   0.0297   0.0523  -0.0331   0.00    0.0    0.00510    0.00047    0.01436   0.07146  0.06901  0.13547  0.03270 -0.03572  0.05007
2020/08/25 12:04:29.000   48.053610242    9.361894592   605.9672   6  18   0.0752   0.0618   0.2039   0.0297   0.0523  -0.0331   0.00    0.0    0.00359   -0.00067    0.01485   0.07146  0.06901  0.13546  0.03271 -0.03571  0.05006
2020/08/25 12:04:30.000   48.053610245    9.361894604   605.9653   6  18   0.0752   0.0618   0.2039   0.0297   0.0523  -0.0331   0.00    0.0    0.00472   -0.00688    0.01917   0.07146  0.06900  0.13545  0.03271 -0.03569  0.05006
2020/08/25 12:04:31.000   48.053610243    9.361894592   605.9663   6  18   0.0752   0.0618   0.2039   0.0297   0.0523  -0.0331   0.00    0.0    0.00229   -0.00188    0.02077   0.07146  0.06900  0.13543  0.03271 -0.03568  0.05005
2020/08/25 12:04:32.000   48.053610244    9.361894598   605.9665   6  18   0.0752   0.0618   0.2039   0.0297   0.0523  -0.0330   0.00    0.0    0.00184   -0.00288    0.02487   0.07146  0.06900  0.13542  0.03272 -0.03566  0.05004
2020/08/25 12:04:33.000   48.053610242    9.361894599   605.9664   6  18   0.0752   0.0618   0.2038   0.0297   0.0523  -0.0330   0.00    0.0    0.00146   -0.00222    0.01803   0.07146  0.06900  0.13541  0.03272 -0.03565  0.05004
2020/08/25 12:04:34.000   48.053610243    9.361894599   605.9652   6  18   0.0752   0.0618   0.2038   0.0297   0.0523  -0.0330   0.00    0.0    0.00431   -0.00231    0.01387   0.07146  0.06900  0.13540  0.03272 -0.03563  0.05003
2020/08/25 12:04:35.000   48.053610245    9.361894600   605.9677   6  18   0.0752   0.0618   0.2038   0.0297   0.0523  -0.0330   0.00    0.0    0.00286   -0.00612    0.02175   0.07146  0.06900  0.13538  0.03273 -0.03562  0.05002
2020/08/25 12:04:36.000   48.053610246    9.361894603   605.9653   6  18   0.0752   0.0618   0.2038   0.0297   0.0523  -0.0330   0.00    0.0   -0.00019   -0.00063    0.02282   0.07146  0.06899  0.13537  0.03273 -0.03560  0.05002
2020/08/25 12:04:37.000   48.053610249    9.361894605   605.9654   6  18   0.0752   0.0618   0.2038   0.0297   0.0523  -0.0330   0.00    0.0    0.00260   -0.00059    0.01988   0.07146  0.06899  0.13536  0.03273 -0.03559  0.05001
2020/08/25 12:04:38.000   48.053610250    9.361894597   605.9647   6  18   0.0752   0.0618   0.2038   0.0297   0.0523  -0.0330   0.00    0.0    0.00144   -0.00176    0.02560   0.07147  0.06899  0.13535  0.03273 -0.03557  0.05001
2020/08/25 12:04:39.000   48.053610248    9.361894603   605.9677   6  18   0.0752   0.0618   0.2038   0.0297   0.0523  -0.0330   0.00    0.0    0.00546   -0.00058    0.01860   0.07147  0.06899  0.13533  0.03274 -0.03556  0.05000
2020/08/25 12:04:40.000   48.053610244    9.361894603   605.9650   6  18   0.0752   0.0618   0.2038   0.0297   0.0523  -0.0330   0.00    0.0    0.00701   -0.00399    0.02423   0.07147  0.06899  0.13532  0.03274 -0.03555  0.04999
2020/08/25 12:04:41.000   48.053610246    9.361894603   605.9654   6  18   0.0752   0.0618   0.2038   0.0297   0.0522  -0.0330   0.00    0.0    0.00029   -0.00497    0.01309   0.07147  0.06898  0.13531  0.03274 -0.03553  0.04999
2020/08/25 12:04:42.000   48.053610245    9.361894599   605.9633   6  18   0.0752   0.0618   0.2038   0.0297   0.0522  -0.0330   0.00    0.0    0.00047   -0.00595    0.01304   0.07147  0.06898  0.13530  0.03275 -0.03552  0.04998
2020/08/25 12:04:43.000   48.053610249    9.361894601   605.9614   6  18   0.0752   0.0618   0.2038   0.0297   0.0522  -0.0330   0.00    0.0    0.00228   -0.00644    0.01650   0.07147  0.06898  0.13528  0.03275 -0.03550  0.04998
2020/08/25 12:04:44.000   48.053610251    9.361894593   605.9627   6  18   0.0752   0.0618   0.2038   0.0297   0.0522  -0.0330   0.00    0.0    0.00349   -0.00655    0.02352   0.07147  0.06898  0.13527  0.03275 -0.03549  0.04997
2020/08/25 12:04:45.000   48.053610245    9.361894599   605.9622   6  18   0.0752   0.0618   0.2038   0.0297   0.0522  -0.0330   0.00    0.0    0.00703   -0.00351    0.03363   0.07147  0.06898  0.13526  0.03276 -0.03547  0.04996
2020/08/25 12:04:46.000   48.053610251    9.361894596   605.9617   6  18   0.0752   0.0618   0.2038   0.0297   0.0522  -0.0330   0.00    0.0    0.00183   -0.00384    0.01656   0.07147  0.06897  0.13525  0.03276 -0.03546  0.04996
2020/08/25 12:04:47.000   48.053610251    9.361894595   605.9625   6  18   0.0752   0.0618   0.2037   0.0297   0.0522  -0.0330   0.00    0.0    0.01060   -0.00353    0.02896   0.07147  0.06897  0.13523  0.03276 -0.03544  0.04995
2020/08/25 12:04:48.000   48.053610251    9.361894603   605.9624   6  18   0.0752   0.0618   0.2037   0.0297   0.0522  -0.0330   0.00    0.0   -0.00017   -0.00526    0.02462   0.07147  0.06897  0.13522  0.03276 -0.03543  0.04995
2020/08/25 12:04:49.000   48.053610253    9.361894599   605.9605   6  18   0.0752   0.0618   0.2037   0.0297   0.0522  -0.0330   0.00    0.0    0.00488   -0.00591    0.02376   0.07147  0.06897  0.13521  0.03277 -0.03541  0.04994
2020/08/25 12:04:50.000   48.053610251    9.361894598   605.9607   6  18   0.0752   0.0618   0.2037   0.0297   0.0522  -0.0330   0.00    0.0    0.00278   -0.00100    0.01972   0.07147  0.06897  0.13520  0.03277 -0.03540  0.04993
2020/08/25 12:04:51.000   48.053610251    9.361894593   605.9614   6  18   0.0752   0.0618   0.2037   0.0297   0.0522  -0.0330   0.00    0.0    0.00182   -0.00552    0.02021   0.07147  0.06896  0.13518  0.03277 -0.03538  0.04993
2020/08/25 12:04:52.000   48.053610252    9.361894597   605.9617   6  18   0.0752   0.0618   0.2037   0.0297   0.0522  -0.0330   0.00    0.0    0.00682   -0.00086    0.02083   0.07147  0.06896  0.13517  0.03278 -0.03537  0.04992
2020/08/25 12:04:53.000   48.053610252    9.361894598   605.9604   6  18   0.0752   0.0618   0.2037   0.0297   0.0522  -0.0330   0.00    0.0    0.00635   -0.00390    0.02585   0.07147  0.06896  0.13516  0.03278 -0.03536  0.04991
2020/08/25 12:04:54.000   48.053610254    9.361894595   605.9613   6  18   0.0752   0.0618   0.2037   0.0297   0.0522  -0.0329   0.00    0.0   -0.00030    0.00177    0.01509   0.07147  0.06896  0.13514  0.03278 -0.03534  0.04991
2020/08/25 12:04:55.000   48.053610254    9.361894596   605.9604   6  18   0.0752   0.0618   0.2037   0.0297   0.0522  -0.0329   0.00    0.0    0.00097    0.00052    0.01077   0.07147  0.06896  0.13513  0.03279 -0.03533  0.04990
2020/08/25 12:04:56.000   48.053610251    9.361894601   605.9602   6  18   0.0752   0.0618   0.2037   0.0297   0.0522  -0.0329   0.00    0.0    0.00126   -0.00431    0.01637   0.07147  0.06895  0.13512  0.03279 -0.03531  0.04990
2020/08/25 12:04:57.000   48.053610251    9.361894595   605.9601   6  18   0.0752   0.0618   0.2037   0.0297   0.0522  -0.0329   0.00    0.0    0.00079   -0.00356    0.01631   0.07148  0.06895  0.13511  0.03279 -0.03530  0.04989
2020/08/25 12:04:58.000   48.053610251    9.361894596   605.9597   6  18   0.0752   0.0618   0.2037   0.0297   0.0522  -0.0329   0.00    0.0    0.00373   -0.00176    0.01817   0.07148  0.06895  0.13509  0.03279 -0.03528  0.04988
2020/08/25 12:04:59.000   48.053610258    9.361894601   605.9597   6  18   0.0752   0.0618   0.2037   0.0297   0.0522  -0.0329   0.00    0.0    0.00263   -0.00445    0.02391   0.07148  0.06895  0.13508  0.03280 -0.03527  0.04988
2020/08/25 12:05:00.000   48.053610251    9.361894600   605.9593   6  18   0.0752   0.0618   0.2037   0.0297   0.0522  -0.0329   0.00    0.0    0.00448   -0.00845    0.01746   0.07148  0.06895  0.13507  0.03280 -0.03525  0.04987
2020/08/25 12:05:01.000   48.053610255    9.361894602   605.9621   6  18   0.0752   0.0618   0.2037   0.0297   0.0522  -0.0329   0.00    0.0    0.00127   -0.00510    0.02521   0.07148  0.06894  0.13506  0.03280 -0.03524  0.04987
2020/08/25 12:05:02.000   48.053610255    9.361894601   605.9621   6  18   0.0752   0.0618   0.2037   0.0297   0.0522  -0.0329   0.00    0.0    0.00310   -0.00666    0.03400   0.07148  0.06894  0.13504  0.03281 -0.03522  0.04986
2020/08/25 12:05:03.000   48.053610253    9.361894605   605.9614   6  18   0.0752   0.0618   0.2037   0.0297   0.0522  -0.0329   0.00    0.0    0.00241    0.00226    0.01970   0.07148  0.06894  0.13503  0.03281 -0.03521  0.04985
2020/08/25 12:05:04.000   48.053610253    9.361894597   605.9614   6  18   0.0752   0.0618   0.2037   0.0297   0.0522  -0.0329   0.00    0.0    0.00889   -0.00409    0.01581   0.07148  0.06894  0.13502  0.03281 -0.03519  0.04985
2020/08/25 12:05:05.000   48.053610257    9.361894597   605.9601   6  18   0.0752   0.0618   0.2037   0.0297   0.0522  -0.0329   0.00    0.0    0.00442   -0.00031    0.02533   0.07148  0.06894  0.13501  0.03281 -0.03518  0.04984
2020/08/25 12:05:06.000   48.053610252    9.361894599   605.9614   6  18   0.0752   0.0618   0.2037   0.0297   0.0522  -0.0329   0.00    0.0    0.00607   -0.00199    0.01235   0.07148  0.06893  0.13499  0.03282 -0.03517  0.04983
2020/08/25 12:05:07.000   48.053610256    9.361894595   605.9609   6  18   0.0752   0.0618   0.2037   0.0297   0.0522  -0.0329   0.00    0.0    0.00147   -0.00364    0.01982   0.07148  0.06893  0.13498  0.03282 -0.03515  0.04983
2020/08/25 12:05:08.000   48.053610251    9.361894597   605.9602   6  18   0.0752   0.0618   0.2036   0.0297   0.0522  -0.0329   0.00    0.0   -0.00256    0.00238    0.01787   0.07148  0.06893  0.13497  0.03282 -0.03514  0.04982
2020/08/25 12:05:09.000   48.053610262    9.361894598   605.9586   6  18   0.0752   0.0618   0.2036   0.0297   0.0522  -0.0329   0.00    0.0    0.00073   -0.00257    0.02500   0.07148  0.06893  0.13496  0.03283 -0.03512  0.04982
2020/08/25 12:05:10.000   48.053610256    9.361894598   605.9601   6  18   0.0752   0.0618   0.2036   0.0297   0.0522  -0.0329   0.00    0.0    0.00436   -0.00002    0.02561   0.07148  0.06893  0.13494  0.03283 -0.03511  0.04981
2020/08/25 12:05:11.000   48.053610253    9.361894598   605.9606   6  18   0.0752   0.0618   0.2036   0.0297   0.0522  -0.0329   0.00    0.0    0.00489   -0.00239    0.02419   0.07148  0.06893  0.13493  0.03283 -0.03509  0.04980
2020/08/25 12:05:12.000   48.053610251    9.361894597   605.9600   6  18   0.0752   0.0618   0.2036   0.0297   0.0522  -0.0329   0.00    0.0    0.00267   -0.00574    0.02032   0.07148  0.06892  0.13492  0.03284 -0.03508  0.04980
2020/08/25 12:05:13.000   48.053610256    9.361894603   605.9606   6  18   0.0752   0.0618   0.2036   0.0297   0.0522  -0.0329   0.00    0.0    0.00217   -0.00358    0.01750   0.07148  0.06892  0.13490  0.03284 -0.03506  0.04979
2020/08/25 12:05:14.000   48.053610259    9.361894607   605.9596   6  18   0.0752   0.0618   0.2036   0.0297   0.0522  -0.0329   0.00    0.0    0.00238   -0.00440    0.02257   0.07148  0.06892  0.13489  0.03284 -0.03505  0.04978
2020/08/25 12:05:15.000   48.053610258    9.361894597   605.9616   6  18   0.0752   0.0618   0.2036   0.0297   0.0522  -0.0329   0.00    0.0    0.00431   -0.00692    0.02381   0.07148  0.06892  0.13488  0.03284 -0.03503  0.04978
2020/08/25 12:05:16.000   48.053610258    9.361894599   605.9607   6  18   0.0752   0.0618   0.2036   0.0297   0.0522  -0.0329   0.00    0.0    0.00054   -0.00103    0.01949   0.07149  0.06892  0.13487  0.03285 -0.03502  0.04977
2020/08/25 12:05:17.000   48.053610254    9.361894598   605.9610   6  18   0.0752   0.0618   0.2036   0.0297   0.0522  -0.0329   0.00    0.0    0.00272   -0.00043    0.01748   0.07149  0.06891  0.13485  0.03285 -0.03500  0.04977
2020/08/25 12:05:18.000   48.053610255    9.361894601   605.9615   6  18   0.0752   0.0618   0.2036   0.0297   0.0522  -0.0329   0.00    0.0    0.00031   -0.00323    0.02229   0.07149  0.06891  0.13484  0.03285 -0.03499  0.04976
2020/08/25 12:05:19.000   48.053610252    9.361894601   605.9610   6  18   0.0752   0.0618   0.2036   0.0297   0.0522  -0.0329   0.00    0.0    0.00608   -0.00810    0.02071   0.07149  0.06891  0.13483  0.03286 -0.03498  0.04975
2020/08/25 12:05:20.000   48.053610259    9.361894596   605.9611   6  18   0.0752   0.0618   0.2036   0.0297   0.0522  -0.0329   0.00    0.0    0.00261   -0.00235    0.02032   0.07149  0.06891  0.13482  0.03286 -0.03496  0.04975
2020/08/25 12:05:21.000   48.053610258    9.361894608   605.9613   6  18   0.0752   0.0618   0.2036   0.0297   0.0522  -0.0329   0.00    0.0    0.00332   -0.00248    0.01522   0.07149  0.06891  0.13480  0.03286 -0.03495  0.04974
2020/08/25 12:05:22.000   48.053610255    9.361894603   605.9617   6  18   0.0752   0.0618   0.2036   0.0297   0.0522  -0.0329   0.00    0.0    0.00663   -0.00104    0.01796   0.07149  0.06890  0.13479  0.03286 -0.03493  0.04973
2020/08/25 12:05:23.000   48.053610257    9.361894603   605.9631   6  18   0.0752   0.0618   0.2036   0.0297   0.0521  -0.0329   0.00    0.0    0.00543   -0.00355    0.02209   0.07149  0.06890  0.13478  0.03287 -0.03492  0.04973
2020/08/25 12:05:24.000   48.053610256    9.361894599   605.9633   6  18   0.0752   0.0618   0.2036   0.0297   0.0521  -0.0329   0.00    0.0    0.00430   -0.00295    0.01599   0.07149  0.06890  0.13476  0.03287 -0.03490  0.04972
2020/08/25 12:05:25.000   48.053610254    9.361894599   605.9629   6  18   0.0752   0.0618   0.2036   0.0297   0.0521  -0.0329   0.00    0.0    0.00483   -0.00019    0.02604   0.07149  0.06890  0.13475  0.03287 -0.03489  0.04972
2020/08/25 12:05:26.000   48.053610255    9.361894604   605.9634   6  18   0.0752   0.0618   0.2036   0.0297   0.0521  -0.0329   0.00    0.0    0.00277   -0.00722    0.02300   0.07149  0.06890  0.13474  0.03288 -0.03487  0.04971
2020/08/25 12:05:27.000   48.053610260    9.361894605   605.9617   6  18   0.0752   0.0618   0.2036   0.0297   0.0521  -0.0329   0.00    0.0   -0.00156   -0.00188    0.01096   0.07149  0.06889  0.13473  0.03288 -0.03486  0.04970
2020/08/25 12:05:28.000   48.053610257    9.361894604   605.9614   6  18   0.0752   0.0618   0.2036   0.0297   0.0521  -0.0329   0.00    0.0    0.00578   -0.00354    0.01471   0.07149  0.06889  0.13471  0.03288 -0.03484  0.04970
2020/08/25 12:05:29.000   48.053610258    9.361894599   605.9615   6  18   0.0752   0.0618   0.2036   0.0297   0.0521  -0.0329   0.00    0.0    0.00288   -0.00300    0.02475   0.07149  0.06889  0.13470  0.03288 -0.03483  0.04969
2020/08/25 12:05:30.000   48.053610262    9.361894606   605.9616   6  18   0.0752   0.0618   0.2036   0.0297   0.0521  -0.0328   0.00    0.0    0.00607   -0.00383    0.02405   0.07149  0.06889  0.13469  0.03289 -0.03481  0.04968
2020/08/25 12:05:31.000   48.053610256    9.361894603   605.9600   6  18   0.0752   0.0618   0.2036   0.0297   0.0521  -0.0328   0.00    0.0    0.00079   -0.00247    0.02123   0.07149  0.06889  0.13468  0.03289 -0.03480  0.04968
2020/08/25 12:05:32.000   48.053610258    9.361894608   605.9610   6  18   0.0752   0.0618   0.2036   0.0297   0.0521  -0.0328   0.00    0.0    0.00258    0.00572    0.01568   0.07149  0.06888  0.13466  0.03289 -0.03479  0.04967
2020/08/25 12:05:33.000   48.053610259    9.361894600   605.9605   6  18   0.0752   0.0618   0.2036   0.0297   0.0521  -0.0328   0.00    0.0   -0.00040   -0.00274    0.01496   0.07149  0.06888  0.13465  0.03290 -0.03477  0.04966
2020/08/25 12:05:34.000   48.053610259    9.361894599   605.9605   6  18   0.0752   0.0618   0.2036   0.0297   0.0521  -0.0328   0.00    0.0    0.00521   -0.00040    0.02022   0.07149  0.06888  0.13464  0.03290 -0.03476  0.04966
2020/08/25 12:05:35.000   48.053610261    9.361894600   605.9602   6  18   0.0752   0.0618   0.2036   0.0297   0.0521  -0.0328   0.00    0.0    0.00507   -0.00348    0.01977   0.07150  0.06888  0.13462  0.03290 -0.03474  0.04965
2020/08/25 12:05:36.000   48.053610263    9.361894602   605.9623   6  18   0.0752   0.0618   0.2036   0.0297   0.0521  -0.0328   0.00    0.0    0.00258   -0.00394    0.01440   0.07150  0.06888  0.13461  0.03290 -0.03473  0.04965
2020/08/25 12:05:37.000   48.053610260    9.361894601   605.9600   6  18   0.0752   0.0618   0.2036   0.0297   0.0521  -0.0328   0.00    0.0    0.00087   -0.00293    0.01797   0.07150  0.06888  0.13460  0.03291 -0.03471  0.04964
2020/08/25 12:05:38.000   48.053610266    9.361894602   605.9578   6  18   0.0752   0.0618   0.2036   0.0297   0.0521  -0.0328   0.00    0.0    0.00323   -0.00158    0.01685   0.07150  0.06887  0.13459  0.03291 -0.03470  0.04963
2020/08/25 12:05:39.000   48.053610262    9.361894600   605.9583   6  18   0.0752   0.0618   0.2036   0.0297   0.0521  -0.0328   0.00    0.0    0.00730   -0.00217    0.02389   0.07150  0.06887  0.13457  0.03291 -0.03468  0.04963
2020/08/25 12:05:40.000   48.053610265    9.361894615   605.9580   6  18   0.0752   0.0618   0.2036   0.0297   0.0521  -0.0328   0.00    0.0    0.00056   -0.00441    0.01420   0.07150  0.06887  0.13456  0.03292 -0.03467  0.04962
2020/08/25 12:05:41.000   48.053610267    9.361894606   605.9576   6  18   0.0752   0.0618   0.2036   0.0297   0.0521  -0.0328   0.00    0.0    0.00285   -0.00335    0.01842   0.07150  0.06887  0.13455  0.03292 -0.03465  0.04961
2020/08/25 12:05:42.000   48.053610262    9.361894603   605.9587   6  18   0.0752   0.0618   0.2036   0.0297   0.0521  -0.0328   0.00    0.0    0.00475   -0.00590    0.02542   0.07150  0.06887  0.13453  0.03292 -0.03464  0.04961
2020/08/25 12:05:43.000   48.053610265    9.361894597   605.9576   6  18   0.0752   0.0618   0.2036   0.0297   0.0521  -0.0328   0.00    0.0    0.00071    0.00214    0.01601   0.07150  0.06886  0.13452  0.03292 -0.03463  0.04960
2020/08/25 12:05:44.000   48.053610261    9.361894602   605.9573   6  18   0.0752   0.0618   0.2036   0.0297   0.0521  -0.0328   0.00    0.0    0.00215   -0.00136    0.02353   0.07150  0.06886  0.13451  0.03293 -0.03461  0.04959
2020/08/25 12:05:45.000   48.053610270    9.361894598   605.9576   6  18   0.0752   0.0618   0.2036   0.0297   0.0521  -0.0328   0.00    0.0    0.00762    0.00293    0.02429   0.07150  0.06886  0.13450  0.03293 -0.03460  0.04959
2020/08/25 12:05:46.000   48.053610267    9.361894593   605.9573   6  18   0.0752   0.0618   0.2036   0.0297   0.0521  -0.0328   0.00    0.0    0.00623   -0.00568    0.02423   0.07150  0.06886  0.13448  0.03293 -0.03458  0.04958
2020/08/25 12:05:47.000   48.053610266    9.361894603   605.9566   6  18   0.0752   0.0618   0.2036   0.0297   0.0521  -0.0328   0.00    0.0    0.00616   -0.00505    0.02830   0.07150  0.06886  0.13447  0.03294 -0.03457  0.04958
2020/08/25 12:05:48.000   48.053610264    9.361894596   605.9564   6  18   0.0752   0.0618   0.2036   0.0297   0.0521  -0.0328   0.00    0.0    0.00245   -0.00131    0.02339   0.07150  0.06885  0.13446  0.03294 -0.03455  0.04957
2020/08/25 12:05:49.000   48.053610264    9.361894598   605.9573   6  18   0.0752   0.0618   0.2036   0.0297   0.0521  -0.0328   0.00    0.0   -0.00067   -0.00623    0.01637   0.07150  0.06885  0.13444  0.03294 -0.03454  0.04956
2020/08/25 12:05:50.000   48.053610266    9.361894603   605.9572   6  18   0.0752   0.0618   0.2036   0.0297   0.0521  -0.0328   0.00    0.0    0.00104   -0.00592    0.02327   0.07150  0.06885  0.13443  0.03294 -0.03452  0.04956
2020/08/25 12:05:51.000   48.053610265    9.361894605   605.9567   6  18   0.0752   0.0618   0.2036   0.0297   0.0521  -0.0328   0.00    0.0    0.00342   -0.00559    0.01995   0.07150  0.06885  0.13442  0.03295 -0.03451  0.04955
2020/08/25 12:05:52.000   48.053610266    9.361894598   605.9553   6  18   0.0752   0.0618   0.2036   0.0297   0.0521  -0.0328   0.00    0.0    0.00207   -0.00339    0.02377   0.07150  0.06885  0.13441  0.03295 -0.03449  0.04954
2020/08/25 12:05:53.000   48.053610269    9.361894601   605.9563   6  18   0.0752   0.0618   0.2036   0.0297   0.0521  -0.0328   0.00    0.0    0.00684   -0.00210    0.02793   0.07150  0.06885  0.13439  0.03295 -0.03448  0.04954
2020/08/25 12:05:54.000   48.053610264    9.361894603   605.9570   6  18   0.0752   0.0618   0.2036   0.0297   0.0521  -0.0328   0.00    0.0    0.00454   -0.00322    0.03062   0.07150  0.06884  0.13438  0.03296 -0.03446  0.04953
2020/08/25 12:05:55.000   48.053610266    9.361894601   605.9551   6  18   0.0752   0.0618   0.2036   0.0297   0.0521  -0.0328   0.00    0.0   -0.00196   -0.00510    0.02585   0.07150  0.06884  0.13437  0.03296 -0.03445  0.04952
2020/08/25 12:05:56.000   48.053610271    9.361894607   605.9550   6  18   0.0752   0.0618   0.2036   0.0297   0.0521  -0.0328   0.00    0.0    0.00498    0.00040    0.01619   0.07151  0.06884  0.13435  0.03296 -0.03444  0.04952
2020/08/25 12:05:57.000   48.053610269    9.361894609   605.9548   6  18   0.0752   0.0618   0.2036   0.0297   0.0521  -0.0328   0.00    0.0    0.00073   -0.00225    0.02258   0.07151  0.06884  0.13434  0.03296 -0.03442  0.04951
2020/08/25 12:05:58.000   48.053610267    9.361894603   605.9545   6  18   0.0752   0.0618   0.2036   0.0297   0.0521  -0.0328   0.00    0.0    0.00068   -0.00321    0.00718   0.07151  0.06884  0.13433  0.03297 -0.03441  0.04950
2020/08/25 12:05:59.000   48.053610262    9.361894603   605.9577   6  18   0.0752   0.0618   0.2036   0.0297   0.0521  -0.0328   0.00    0.0    0.00341    0.00037    0.01848   0.07151  0.06883  0.13432  0.03297 -0.03439  0.04950
2020/08/25 12:06:00.000   48.053610266    9.361894606   605.9539   6  18   0.0752   0.0618   0.2036   0.0297   0.0521  -0.0328   0.00    0.0    0.00290   -0.00491    0.02671   0.07151  0.06883  0.13430  0.03297 -0.03438  0.04949
2020/08/25 12:06:01.000   48.053610268    9.361894603   605.9556   6  18   0.0752   0.0618   0.2036   0.0297   0.0521  -0.0328   0.00    0.0    0.00317   -0.00367    0.02146   0.07151  0.06883  0.13429  0.03298 -0.03436  0.04948
2020/08/25 12:06:02.000   48.053610267    9.361894607   605.9538   6  18   0.0752   0.0618   0.2036   0.0297   0.0521  -0.0328   0.00    0.0    0.00695   -0.00145    0.02548   0.07151  0.06883  0.13428  0.03298 -0.03435  0.04948
2020/08/25 12:06:03.000   48.053610268    9.361894603   605.9545   6  18   0.0752   0.0618   0.2036   0.0297   0.0521  -0.0328   0.00    0.0   -0.00068   -0.00351    0.01909   0.07151  0.06883  0.13426  0.03298 -0.03433  0.04947
2020/08/25 12:06:04.000   48.053610271    9.361894607   605.9524   6  18   0.0752   0.0618   0.2036   0.0297   0.0521  -0.0328   0.00    0.0    0.00502   -0.00101    0.01886   0.07151  0.06882  0.13425  0.03298 -0.03432  0.04947
2020/08/25 12:06:05.000   48.053610269    9.361894611   605.9547   6  18   0.0753   0.0618   0.2035   0.0297   0.0521  -0.0328   0.00    0.0    0.00455   -0.00237    0.02228   0.07151  0.06882  0.13424  0.03299 -0.03430  0.04946
2020/08/25 12:06:06.000   48.053610265    9.361894608   605.9551   6  18   0.0753   0.0618   0.2035   0.0297   0.0521  -0.0328   0.00    0.0    0.00527    0.00078    0.01492   0.07151  0.06882  0.13422  0.03299 -0.03429  0.04945
2020/08/25 12:06:07.000   48.053610268    9.361894606   605.9535   6  18   0.0753   0.0618   0.2035   0.0297   0.0521  -0.0328   0.00    0.0    0.00387   -0.00346    0.01905   0.07151  0.06882  0.13421  0.03299 -0.03428  0.04945
2020/08/25 12:06:08.000   48.053610272    9.361894611   605.9530   6  18   0.0753   0.0618   0.2035   0.0297   0.0521  -0.0328   0.00    0.0    0.00451   -0.00030    0.01679   0.07151  0.06882  0.13420  0.03300 -0.03426  0.04944
2020/08/25 12:06:09.000   48.053610269    9.361894606   605.9549   6  18   0.0753   0.0618   0.2035   0.0297   0.0521  -0.0328   0.00    0.0    0.00575   -0.00338    0.01848   0.07151  0.06881  0.13419  0.03300 -0.03425  0.04943
2020/08/25 12:06:10.000   48.053610266    9.361894607   605.9540   6  18   0.0753   0.0618   0.2035   0.0297   0.0521  -0.0328   0.00    0.0    0.00974   -0.00205    0.02351   0.07151  0.06881  0.13417  0.03300 -0.03423  0.04943
2020/08/25 12:06:11.000   48.053610271    9.361894611   605.9548   6  18   0.0753   0.0618   0.2035   0.0297   0.0521  -0.0328   0.00    0.0    0.00324   -0.00108    0.01507   0.07151  0.06881  0.13416  0.03300 -0.03422  0.04942
2020/08/25 12:06:12.000   48.053610273    9.361894613   605.9546   6  17   0.0753   0.0618   0.2036   0.0297   0.0521  -0.0328   0.00    0.0    0.00238   -0.00518    0.01830   0.07163  0.07057  0.13852  0.03204 -0.02507  0.04799
2020/08/25 12:06:13.000   48.053610273    9.361894612   605.9556   6  17   0.0753   0.0618   0.2035   0.0297   0.0521  -0.0328   0.00    0.0    0.00289   -0.00359    0.01723   0.07163  0.07057  0.13850  0.03204 -0.02504  0.04799
2020/08/25 12:06:14.000   48.053610267    9.361894604   605.9543   6  17   0.0753   0.0618   0.2035   0.0297   0.0521  -0.0328   0.00    0.0    0.00409   -0.00430    0.02651   0.07163  0.07057  0.13849  0.03205 -0.02502  0.04798
2020/08/25 12:06:15.000   48.053610270    9.361894612   605.9556   6  17   0.0753   0.0618   0.2035   0.0297   0.0521  -0.0328   0.00    0.0    0.00733    0.00525    0.02027   0.07163  0.07057  0.13848  0.03205 -0.02500  0.04797
2020/08/25 12:06:16.000   48.053610265    9.361894619   605.9553   6  17   0.0753   0.0618   0.2035   0.0297   0.0521  -0.0328   0.00    0.0    0.00480   -0.00357    0.02870   0.07163  0.07057  0.13847  0.03205 -0.02497  0.04797
2020/08/25 12:06:17.000   48.053610265    9.361894611   605.9554   6  17   0.0753   0.0618   0.2035   0.0297   0.0521  -0.0328   0.00    0.0    0.00467   -0.00318    0.01872   0.07163  0.07057  0.13846  0.03206 -0.02495  0.04796
2020/08/25 12:06:18.000   48.053610267    9.361894609   605.9557   6  17   0.0753   0.0618   0.2035   0.0297   0.0521  -0.0328   0.00    0.0    0.00455   -0.00232    0.02117   0.07163  0.07057  0.13845  0.03206 -0.02492  0.04796
2020/08/25 12:06:19.000   48.053610268    9.361894610   605.9567   6  17   0.0753   0.0618   0.2035   0.0297   0.0521  -0.0328   0.00    0.0    0.00223   -0.00413    0.01239   0.07163  0.07057  0.13844  0.03206 -0.02490  0.04795
2020/08/25 12:06:20.000   48.053610267    9.361894609   605.9569   6  17   0.0753   0.0618   0.2035   0.0297   0.0521  -0.0328   0.00    0.0    0.00654   -0.00251    0.01794   0.07163  0.07057  0.13843  0.03207 -0.02488  0.04794
2020/08/25 12:06:21.000   48.053610266    9.361894616   605.9573   6  17   0.0753   0.0618   0.2035   0.0297   0.0521  -0.0328   0.00    0.0    0.00092   -0.00512    0.02663   0.07163  0.07057  0.13842  0.03207 -0.02485  0.04794
2020/08/25 12:06:22.000   48.053610272    9.361894614   605.9557   6  17   0.0753   0.0618   0.2035   0.0297   0.0521  -0.0328   0.00    0.0    0.00154   -0.00555    0.02129   0.07163  0.07056  0.13840  0.03207 -0.02483  0.04793
2020/08/25 12:06:23.000   48.053610274    9.361894614   605.9592   6  17   0.0753   0.0618   0.2035   0.0297   0.0521  -0.0328   0.00    0.0   -0.00319   -0.00514    0.01392   0.07163  0.07056  0.13839  0.03208 -0.02480  0.04793
2020/08/25 12:06:24.000   48.053610274    9.361894614   605.9582   6  17   0.0753   0.0618   0.2035   0.0297   0.0521  -0.0328   0.00    0.0    0.00251   -0.00022    0.01324   0.07163  0.07056  0.13838  0.03208 -0.02478  0.04792
2020/08/25 12:06:25.000   48.053610275    9.361894611   605.9584   6  17   0.0753   0.0618   0.2035   0.0297   0.0521  -0.0328   0.00    0.0    0.00978   -0.00495    0.02272   0.07163  0.07056  0.13837  0.03208 -0.02476  0.04791
2020/08/25 12:06:26.000   48.053610272    9.361894621   605.9569   6  17   0.0753   0.0618   0.2035   0.0297   0.0521  -0.0328   0.00    0.0    0.00386   -0.00927    0.02951   0.07163  0.07056  0.13836  0.03209 -0.02473  0.04791
2020/08/25 12:06:27.000   48.053610268    9.361894612   605.9575   6  17   0.0753   0.0618   0.2035   0.0297   0.0521  -0.0328   0.00    0.0    0.00360   -0.00388    0.01661   0.07163  0.07056  0.13835  0.03209 -0.02471  0.04790
2020/08/25 12:06:28.000   48.053610268    9.361894613   605.9571   6  17   0.0753   0.0618   0.2035   0.0297   0.0521  -0.0328   0.00    0.0    0.00559   -0.00249    0.02279   0.07163  0.07056  0.13834  0.03209 -0.02468  0.04790
2020/08/25 12:06:29.000   48.053610272    9.361894609   605.9560   6  17   0.0753   0.0618   0.2035   0.0297   0.0521  -0.0328   0.00    0.0    0.00573   -0.00554    0.02355   0.07163  0.07056  0.13833  0.03210 -0.02466  0.04789
2020/08/25 12:06:30.000   48.053610270    9.361894614   605.9573   6  17   0.0753   0.0618   0.2035   0.0297   0.0521  -0.0328   0.00    0.0    0.00427   -0.00141    0.02399   0.07163  0.07056  0.13831  0.03210 -0.02463  0.04788
2020/08/25 12:06:31.000   48.053610268    9.361894614   605.9578   6  17   0.0753   0.0618   0.2035   0.0297   0.0521  -0.0328   0.00    0.0    0.00567    0.00008    0.01559   0.07163  0.07056  0.13830  0.03210 -0.02461  0.04788
2020/08/25 12:06:32.000   48.053610271    9.361894614   605.9578   6  17   0.0753   0.0618   0.2035   0.0297   0.0521  -0.0328   0.00    0.0    0.00168   -0.00158    0.02126   0.07163  0.07055  0.13829  0.03211 -0.02459  0.04787
2020/08/25 12:06:33.000   48.053610268    9.361894619   605.9573   6  17   0.0753   0.0618   0.2035   0.0297   0.0521  -0.0328   0.00    0.0   -0.00211   -0.00642    0.02118   0.07163  0.07055  0.13828  0.03211 -0.02456  0.04787
2020/08/25 12:06:34.000   48.053610270    9.361894611   605.9570   6  17   0.0753   0.0618   0.2035   0.0297   0.0521  -0.0328   0.00    0.0    0.00463   -0.00500    0.02034   0.07163  0.07055  0.13827  0.03211 -0.02454  0.04786
2020/08/25 12:06:35.000   48.053610271    9.361894610   605.9577   6  17   0.0753   0.0618   0.2035   0.0297   0.0521  -0.0327   0.00    0.0    0.00075   -0.00122    0.01535   0.07163  0.07055  0.13826  0.03212 -0.02451  0.04785
2020/08/25 12:06:36.000   48.053610271    9.361894613   605.9597   6  17   0.0753   0.0618   0.2035   0.0297   0.0521  -0.0327   0.00    0.0    0.00625   -0.00546    0.02307   0.07163  0.07055  0.13825  0.03212 -0.02449  0.04785
2020/08/25 12:06:37.000   48.053610267    9.361894617   605.9603   6  17   0.0753   0.0618   0.2035   0.0297   0.0521  -0.0327   0.00    0.0    0.00551   -0.00821    0.02328   0.07163  0.07055  0.13824  0.03212 -0.02446  0.04784
2020/08/25 12:06:38.000   48.053610270    9.361894610   605.9582   6  17   0.0753   0.0618   0.2035   0.0297   0.0521  -0.0327   0.00    0.0    0.00619   -0.00214    0.02627   0.07163  0.07055  0.13822  0.03213 -0.02444  0.04784
2020/08/25 12:06:39.000   48.053610274    9.361894611   605.9587   6  17   0.0753   0.0618   0.2035   0.0297   0.0521  -0.0327   0.00    0.0    0.00087   -0.00561    0.03093   0.07163  0.07055  0.13821  0.03213 -0.02441  0.04783
2020/08/25 12:06:40.000   48.053610269    9.361894612   605.9580   6  17   0.0753   0.0618   0.2035   0.0297   0.0521  -0.0327   0.00    0.0    0.00644   -0.00727    0.01122   0.07163  0.07055  0.13820  0.03213 -0.02439  0.04782
2020/08/25 12:06:41.000   48.053610271    9.361894613   605.9584   6  17   0.0753   0.0618   0.2035   0.0297   0.0521  -0.0327   0.00    0.0    0.00863   -0.00195    0.01949   0.07163  0.07054  0.13819  0.03214 -0.02437  0.04782
2020/08/25 12:06:42.000   48.053610272    9.361894614   605.9586   6  17   0.0753   0.0618   0.2034   0.0297   0.0521  -0.0327   0.00    0.0    0.00257   -0.00814    0.01847   0.07163  0.07054  0.13818  0.03214 -0.02434  0.04781
2020/08/25 12:06:43.000   48.053610273    9.361894613   605.9567   6  17   0.0753   0.0618   0.2034   0.0297   0.0521  -0.0327   0.00    0.0    0.00614   -0.00301    0.02466   0.07163  0.07054  0.13817  0.03214 -0.02432  0.04781
2020/08/25 12:06:44.000   48.053610272    9.361894613   605.9581   6  17   0.0753   0.0618   0.2034   0.0297   0.0521  -0.0327   0.00    0.0    0.00448   -0.00623    0.01543   0.07163  0.07054  0.13816  0.03215 -0.02429  0.04780
2020/08/25 12:06:45.000   48.053610273    9.361894620   605.9583   6  17   0.0753   0.0618   0.2034   0.0297   0.0521  -0.0327   0.00    0.0    0.00293   -0.00178    0.02590   0.07163  0.07054  0.13815  0.03215 -0.02427  0.04779
2020/08/25 12:06:46.000   48.053610270    9.361894616   605.9581   6  17   0.0753   0.0618   0.2034   0.0297   0.0521  -0.0327   0.00    0.0    0.00080   -0.00521    0.02068   0.07164  0.07054  0.13813  0.03215 -0.02424  0.04779
2020/08/25 12:06:47.000   48.053610271    9.361894609   605.9581   6  17   0.0753   0.0618   0.2034   0.0297   0.0521  -0.0327   0.00    0.0    0.00496   -0.00452    0.02814   0.07164  0.07054  0.13812  0.03216 -0.02422  0.04778
2020/08/25 12:06:48.000   48.053610273    9.361894611   605.9578   6  17   0.0753   0.0618   0.2034   0.0297   0.0521  -0.0327   0.00    0.0    0.00541    0.00056    0.02043   0.07164  0.07054  0.13811  0.03216 -0.02419  0.04778
2020/08/25 12:06:49.000   48.053610272    9.361894615   605.9598   6  17   0.0753   0.0618   0.2034   0.0297   0.0521  -0.0327   0.00    0.0    0.00540   -0.00327    0.02633   0.07164  0.07054  0.13810  0.03216 -0.02417  0.04777
2020/08/25 12:06:50.000   48.053610274    9.361894608   605.9581   6  17   0.0753   0.0618   0.2034   0.0297   0.0521  -0.0327   0.00    0.0    0.00399    0.00032    0.02097   0.07164  0.07054  0.13809  0.03217 -0.02415  0.04776
2020/08/25 12:06:51.000   48.053610275    9.361894621   605.9585   6  17   0.0753   0.0618   0.2034   0.0297   0.0521  -0.0327   0.00    0.0    0.00393   -0.00438    0.02446   0.07164  0.07053  0.13808  0.03217 -0.02412  0.04776
2020/08/25 12:06:52.000   48.053610270    9.361894609   605.9579   6  17   0.0753   0.0618   0.2034   0.0297   0.0521  -0.0327   0.00    0.0    0.00552    0.00112    0.02010   0.07164  0.07053  0.13807  0.03217 -0.02410  0.04775
2020/08/25 12:06:53.000   48.053610272    9.361894617   605.9595   6  17   0.0753   0.0618   0.2034   0.0297   0.0521  -0.0327   0.00    0.0    0.00548   -0.00397    0.01512   0.07164  0.07053  0.13806  0.03218 -0.02407  0.04774
2020/08/25 12:06:54.000   48.053610272    9.361894614   605.9588   6  17   0.0753   0.0618   0.2034   0.0297   0.0521  -0.0327   0.00    0.0    0.00415   -0.00265    0.02267   0.07164  0.07053  0.13804  0.03218 -0.02405  0.04774
2020/08/25 12:06:55.000   48.053610275    9.361894611   605.9583   6  17   0.0753   0.0618   0.2034   0.0297   0.0521  -0.0327   0.00    0.0    0.00707   -0.00609    0.02691   0.07164  0.07053  0.13803  0.03218 -0.02402  0.04773
2020/08/25 12:06:56.000   48.053610281    9.361894615   605.9582   6  17   0.0753   0.0618   0.2034   0.0297   0.0521  -0.0327   0.00    0.0    0.00555    0.00027    0.02410   0.07164  0.07053  0.13802  0.03219 -0.02400  0.04773
2020/08/25 12:06:57.000   48.053610276    9.361894615   605.9597   6  17   0.0753   0.0618   0.2034   0.0297   0.0521  -0.0327   0.00    0.0    0.00350   -0.00031    0.02369   0.07164  0.07053  0.13801  0.03219 -0.02397  0.04772
2020/08/25 12:06:58.000   48.053610275    9.361894610   605.9597   6  17   0.0753   0.0618   0.2034   0.0297   0.0521  -0.0327   0.00    0.0    0.00818   -0.00432    0.02831   0.07164  0.07053  0.13800  0.03219 -0.02395  0.04771
2020/08/25 12:06:59.000   48.053610278    9.361894614   605.9604   6  17   0.0753   0.0618   0.2034   0.0297   0.0521  -0.0327   0.00    0.0    0.00053   -0.00409    0.02147   0.07164  0.07053  0.13799  0.03220 -0.02392  0.04771
2020/08/25 12:07:00.000   48.053610276    9.361894615   605.9591   6  17   0.0753   0.0618   0.2034   0.0297   0.0521  -0.0327   0.00    0.0    0.00151   -0.00584    0.02123   0.07164  0.07053  0.13798  0.03220 -0.02390  0.04770
2020/08/25 12:07:01.000   48.053610270    9.361894619   605.9595   6  17   0.0753   0.0618   0.2034   0.0297   0.0521  -0.0327   0.00    0.0    0.00412   -0.00305    0.02586   0.07164  0.07052  0.13796  0.03220 -0.02388  0.04770
2020/08/25 12:07:02.000   48.053610273    9.361894611   605.9593   6  17   0.0753   0.0618   0.2034   0.0297   0.0521  -0.0327   0.00    0.0   -0.00134   -0.00653    0.01878   0.07164  0.07052  0.13795  0.03220 -0.02385  0.04769
2020/08/25 12:07:03.000   48.053610276    9.361894607   605.9600   6  17   0.0753   0.0618   0.2034   0.0297   0.0521  -0.0327   0.00    0.0    0.00673   -0.00418    0.01693   0.07164  0.07052  0.13794  0.03221 -0.02383  0.04768
2020/08/25 12:07:04.000   48.053610279    9.361894612   605.9600   6  17   0.0753   0.0618   0.2034   0.0297   0.0521  -0.0327   0.00    0.0    0.00476   -0.00174    0.01584   0.07164  0.07052  0.13793  0.03221 -0.02380  0.04768
2020/08/25 12:07:05.000   48.053610278    9.361894612   605.9603   6  17   0.0753   0.0618   0.2034   0.0297   0.0521  -0.0327   0.00    0.0    0.00541   -0.00495    0.02948   0.07164  0.07052  0.13792  0.03221 -0.02378  0.04767
2020/08/25 12:07:06.000   48.053610272    9.361894614   605.9591   6  17   0.0753   0.0618   0.2034   0.0297   0.0521  -0.0327   0.00    0.0    0.00477    0.00081    0.01003   0.07164  0.07052  0.13791  0.03222 -0.02375  0.04766
2020/08/25 12:07:07.000   48.053610273    9.361894614   605.9598   6  17   0.0753   0.0618   0.2034   0.0297   0.0521  -0.0327   0.00    0.0    0.00380   -0.00372    0.01363   0.07164  0.07052  0.13790  0.03222 -0.02373  0.04766
2020/08/25 12:07:08.000   48.053610275    9.361894618   605.9595   6  17   0.0753   0.0618   0.2034   0.0297   0.0521  -0.0327   0.00    0.0   -0.00032   -0.00201    0.01279   0.07164  0.07052  0.13788  0.03222 -0.02370  0.04765
2020/08/25 12:07:09.000   48.053610279    9.361894615   605.9580   6  17   0.0753   0.0618   0.2034   0.0297   0.0521  -0.0327   0.00    0.0    0.00330   -0.00731    0.02387   0.07164  0.07052  0.13787  0.03223 -0.02368  0.04765
2020/08/25 12:07:10.000   48.053610274    9.361894615   605.9595   6  17   0.0753   0.0618   0.2034   0.0297   0.0521  -0.0327   0.00    0.0    0.00148   -0.00544    0.01963   0.07164  0.07052  0.13786  0.03223 -0.02365  0.04764
2020/08/25 12:07:11.000   48.053610277    9.361894616   605.9591   6  17   0.0753   0.0618   0.2034   0.0297   0.0521  -0.0327   0.00    0.0   -0.00306   -0.00738    0.02955   0.07164  0.07051  0.13785  0.03223 -0.02363  0.04763
2020/08/25 12:07:12.000   48.053610281    9.361894619   605.9598   6  17   0.0753   0.0618   0.2034   0.0297   0.0521  -0.0327   0.00    0.0    0.00726   -0.00428    0.02300   0.07164  0.07051  0.13784  0.03224 -0.02360  0.04763
2020/08/25 12:07:13.000   48.053610279    9.361894620   605.9588   6  17   0.0753   0.0618   0.2034   0.0297   0.0521  -0.0327   0.00    0.0    0.00307   -0.00664    0.02232   0.07164  0.07051  0.13783  0.03224 -0.02358  0.04762
2020/08/25 12:07:14.000   48.053610277    9.361894614   605.9603   6  17   0.0753   0.0618   0.2034   0.0297   0.0521  -0.0327   0.00    0.0   -0.00171   -0.00437    0.02266   0.07164  0.07051  0.13782  0.03224 -0.02355  0.04761
2020/08/25 12:07:15.000   48.053610278    9.361894620   605.9605   6  17   0.0753   0.0618   0.2034   0.0297   0.0521  -0.0327   0.00    0.0    0.00565   -0.00448    0.01412   0.07164  0.07051  0.13780  0.03225 -0.02353  0.04761
